{"places": [{"categories": [{"id": "50327c8591d4c4b30a586d5d", "shortName": "Brewery", "primary": true, "icon": {"suffix": ".png", "prefix": "https://ss3.4sqi.net/img/categories_v2/food/brewery_"}, "pluralName": "Breweries", "name": "Brewery"}], "id": "4ab6f238f964a5208f7920e3", "hasPerk": false, "location": {"formattedAddress": ["1243 High St (btw E 12th & E 13th)", "Eugene, OR 97401", "United States"], "lng": -123.08792093833907, "crossStreet": "btw E 12th & E 13th", "city": "Eugene", "distance": 6, "labeledLatLngs": [{"lat": 44.04617206498285, "lng": -123.08792093833907, "label": "display"}], "cc": "US", "lat": 44.04617206498285, "address": "1243 High St", "state": "OR", "postalCode": "97401", "country": "United States"}, "name": "High Street Brewery & Cafe", "referralId": "v-1576124823"}, {"categories": [{"id": "4bf58dd8d48988d14e941735", "shortName": "American", "primary": true, "icon": {"suffix": ".png", "prefix": "https://ss3.4sqi.net/img/categories_v2/food/default_"}, "pluralName": "American Restaurants", "name": "American Restaurant"}], "id": "51919c6a498eb1c3ddce7adf", "hasPerk": false, "location": {"formattedAddress": ["55 W Broadway", "Eugene, OR 97401", "United States"], "lat": 44.05023952583174, "lng": -123.09352033705778, "city": "Eugene", "distance": 632, "labeledLatLngs": [{"lat": 44.05023952583174, "lng": -123.09352033705778, "label": "display"}], "state": "OR", "address": "55 W Broadway", "postalCode": "97401", "cc": "US", "country": "United States"}, "name": "Party Downtown", "referralId": "v-1576124823"}, {"categories": [{"id": "4bf58dd8d48988d1d5941735", "shortName": "Hotel Bar", "primary": true, "icon": {"suffix": ".png", "prefix": "https://ss3.4sqi.net/img/categories_v2/travel/hotel_bar_"}, "pluralName": "Hotel Bars", "name": "Hotel Bar"}], "id": "5d7c794d72c4090008992e10", "hasPerk": false, "location": {"formattedAddress": ["66 E 6th Ave (at Willamette St)", "Eugene, OR 97401", "United States"], "lng": -123.092342, "crossStreet": "at Willamette St", "city": "Eugene", "distance": 808, "labeledLatLngs": [{"lat": 44.052737, "lng": -123.092342, "label": "display"}], "cc": "US", "lat": 44.052737, "address": "66 E 6th Ave", "state": "OR", "postalCode": "97401", "country": "United States"}, "name": "The Fir", "referralId": "v-1576124823"}, {"categories": [{"id": "4bf58dd8d48988d10c941735", "shortName": "French", "primary": true, "icon": {"suffix": ".png", "prefix": "https://ss3.4sqi.net/img/categories_v2/food/french_"}, "pluralName": "French Restaurants", "name": "French Restaurant"}], "id": "5c283acb1ffed7002ce9062f", "hasPerk": false, "location": {"formattedAddress": ["1530 Willamette St", "Eugene, OR 97401", "United States"], "lat": 44.04292, "lng": -123.093001, "city": "Eugene", "distance": 539, "labeledLatLngs": [{"lat": 44.04292, "lng": -123.093001, "label": "display"}], "state": "OR", "address": "1530 Willamette St", "postalCode": "97401", "cc": "US", "country": "United States"}, "name": "Bar Purlieu", "referralId": "v-1576124823"}, {"categories": [{"id": "4bf58dd8d48988d1e5931735", "shortName": "Music Venue", "primary": true, "icon": {"suffix": ".png", "prefix": "https://ss3.4sqi.net/img/categories_v2/arts_entertainment/musicvenue_"}, "pluralName": "Music Venues", "name": "Music Venue"}], "id": "553ac46e498edaf4b05b7b2e", "hasPerk": false, "location": {"formattedAddress": ["44 E 7th Ave (at Willamette St)", "Eugene, OR 97401", "United States"], "lng": -123.09245548050224, "crossStreet": "at Willamette St", "city": "Eugene", "distance": 730, "labeledLatLngs": [{"lat": 44.05190050218862, "lng": -123.09245548050224, "label": "display"}], "cc": "US", "lat": 44.05190050218862, "address": "44 E 7th Ave", "state": "OR", "postalCode": "97401", "country": "United States"}, "name": "HiFi Music Hall", "referralId": "v-1576124823"}, {"categories": [{"id": "4bf58dd8d48988d1ca941735", "shortName": "Pizza", "primary": true, "icon": {"suffix": ".png", "prefix": "https://ss3.4sqi.net/img/categories_v2/food/pizza_"}, "pluralName": "Pizza Places", "name": "Pizza Place"}], "id": "5766ec3c498e4316ba9414c2", "delivery": {"provider": {"icon": {"prefix": "https://fastly.4sqi.net/img/general/cap/", "name": "/delivery_provider_grubhub_20180129.png", "sizes": [40, 50]}, "name": "grubhub"}, "id": "990172", "url": "https://www.grubhub.com/restaurant/falling-sky-pizzeria-1395-university-st-eugene/990172?affiliate=1131&utm_source=foursquare-affiliate-network&utm_medium=affiliate&utm_campaign=1131&utm_content=990172"}, "hasPerk": false, "location": {"formattedAddress": ["1395 University St Unit 46", "Eugene, OR 97403", "United States"], "lng": -123.074135, "city": "Eugene", "distance": 1126, "labeledLatLngs": [{"lat": 44.044434, "lng": -123.074135, "label": "display"}], "cc": "US", "lat": 44.044434, "neighborhood": "South Eugene", "address": "1395 University St Unit 46", "state": "OR", "postalCode": "97403", "country": "United States"}, "referralId": "v-1576124823", "name": "Falling Sky Pizzeria & Public House"}, {"categories": [{"id": "50327c8591d4c4b30a586d5d", "shortName": "Brewery", "primary": true, "icon": {"suffix": ".png", "prefix": "https://ss3.4sqi.net/img/categories_v2/food/brewery_"}, "pluralName": "Breweries", "name": "Brewery"}], "id": "5b00b31ae96d0c00396037c8", "hasPerk": false, "location": {"formattedAddress": ["Eugene, OR 97405", "United States"], "lat": 44.0316, "lng": -123.09106, "city": "Eugene", "distance": 1640, "labeledLatLngs": [{"lat": 44.0316, "lng": -123.09106, "label": "display"}], "state": "OR", "postalCode": "97405", "cc": "US", "country": "United States"}, "name": "Viking Braggot Southtowne", "referralId": "v-1576124823"}, {"categories": [{"id": "50327c8591d4c4b30a586d5d", "shortName": "Brewery", "primary": true, "icon": {"suffix": ".png", "prefix": "https://ss3.4sqi.net/img/categories_v2/food/brewery_"}, "pluralName": "Breweries", "name": "Brewery"}], "id": "5acd5160f96b2c02c137e313", "hasPerk": false, "location": {"formattedAddress": ["1203 Willamette St", "Eugene, OR 97401", "United States"], "lat": 44.046377, "lng": -123.09238300000001, "city": "Eugene", "distance": 351, "labeledLatLngs": [{"lat": 44.046377, "lng": -123.09238300000001, "label": "display"}], "state": "OR", "address": "1203 Willamette St", "postalCode": "97401", "cc": "US", "country": "United States"}, "name": "Claim 52 Kitchen", "referralId": "v-1576124823"}, {"categories": [{"id": "4eb1bea83b7b6f98df247e06", "shortName": "Factory", "primary": true, "icon": {"suffix": ".png", "prefix": "https://ss3.4sqi.net/img/categories_v2/building/factory_"}, "pluralName": "Factories", "name": "Factory"}], "id": "539b8d21498ee5525ababa6b", "hasPerk": false, "location": {"formattedAddress": ["220 Blair Blvd (btwn W 2nd & W 3rd Ave)", "Eugene, OR 97402", "United States"], "lng": -123.11118570453225, "crossStreet": "btwn W 2nd & W 3rd Ave", "city": "Eugene", "distance": 2225, "labeledLatLngs": [{"lat": 44.057216846693024, "lng": -123.11118570453225, "label": "display"}], "cc": "US", "lat": 44.057216846693024, "address": "220 Blair Blvd", "state": "OR", "postalCode": "97402", "country": "United States"}, "name": "Ninkasi Brewing Brewhouse", "referralId": "v-1576124823"}, {"categories": [{"id": "4bf58dd8d48988d123941735", "shortName": "Wine Bar", "primary": true, "icon": {"suffix": ".png", "prefix": "https://ss3.4sqi.net/img/categories_v2/food/winery_"}, "pluralName": "Wine Bars", "name": "Wine Bar"}], "id": "4bab0c3df964a5200c933ae3", "hasPerk": false, "location": {"formattedAddress": ["907 W 3rd Ave (at Adams St)", "Eugene, OR 97402", "United States"], "lng": -123.10659152382668, "crossStreet": "at Adams St", "city": "Eugene", "distance": 1886, "labeledLatLngs": [{"lat": 44.056595753931525, "lng": -123.10659152382668, "label": "display"}], "cc": "US", "lat": 44.056595753931525, "address": "907 W 3rd Ave", "state": "OR", "postalCode": "97402", "country": "United States"}, "name": "Territorial Vineyards & Wine Company", "referralId": "v-1576124823"}, {"categories": [{"id": "50327c8591d4c4b30a586d5d", "shortName": "Brewery", "primary": true, "icon": {"suffix": ".png", "prefix": "https://ss3.4sqi.net/img/categories_v2/food/brewery_"}, "pluralName": "Breweries", "name": "Brewery"}], "id": "5acb5ffa4186866c64894033", "hasPerk": false, "location": {"formattedAddress": ["740 Willamette St", "Eugene, OR 97401", "United States"], "lat": 44.05158576696177, "lng": -123.09284538030623, "city": "Eugene", "distance": 716, "labeledLatLngs": [{"lat": 44.05158576696177, "lng": -123.09284538030623, "label": "display"}], "state": "OR", "address": "740 Willamette St", "postalCode": "97401", "cc": "US", "country": "United States"}, "name": "Manifest Beer Company", "referralId": "v-1576124823"}, {"categories": [{"id": "4bf58dd8d48988d11d941735", "shortName": "Sports Bar", "primary": true, "icon": {"suffix": ".png", "prefix": "https://ss3.4sqi.net/img/categories_v2/nightlife/sportsbar_"}, "pluralName": "Sports Bars", "name": "Sports Bar"}], "id": "5b8b4d5b9f8a9f0039df88db", "hasPerk": false, "location": {"formattedAddress": ["1675 Franklin Blvd", "Eugene, OR 97403", "United States"], "lat": 44.046633, "lng": -123.068449, "city": "Eugene", "distance": 1565, "labeledLatLngs": [{"lat": 44.046633, "lng": -123.068449, "label": "display"}], "state": "OR", "address": "1675 Franklin Blvd", "postalCode": "97403", "cc": "US", "country": "United States"}, "name": "Trev\u2019s Sports Bar & Grill", "referralId": "v-1576124823"}, {"categories": [{"id": "4bf58dd8d48988d116941735", "shortName": "Bar", "primary": true, "icon": {"suffix": ".png", "prefix": "https://ss3.4sqi.net/img/categories_v2/nightlife/pub_"}, "pluralName": "Bars", "name": "Bar"}], "id": "5531f383498e051a1d24f3c4", "delivery": {"provider": {"icon": {"prefix": "https://fastly.4sqi.net/img/general/cap/", "name": "/delivery_provider_grubhub_20180129.png", "sizes": [40, 50]}, "name": "grubhub"}, "id": "992873", "url": "https://www.grubhub.com/restaurant/old-nicks-211-washington-st-eugene/992873?affiliate=1131&utm_source=foursquare-affiliate-network&utm_medium=affiliate&utm_campaign=1131&utm_content=992873"}, "hasPerk": false, "location": {"formattedAddress": ["211 Washington St (at E 2nd Ave)", "Eugene, OR 97402", "United States"], "lng": -123.10008700000002, "crossStreet": "at E 2nd Ave", "city": "Eugene", "distance": 1587, "labeledLatLngs": [{"lat": 44.05748, "lng": -123.10008700000002, "label": "display"}], "cc": "US", "lat": 44.05748, "address": "211 Washington St", "state": "OR", "postalCode": "97402", "country": "United States"}, "referralId": "v-1576124823", "name": "Old Nicks"}, {"categories": [{"id": "4bf58dd8d48988d1e1931735", "shortName": "Arcade", "primary": true, "icon": {"suffix": ".png", "prefix": "https://ss3.4sqi.net/img/categories_v2/arts_entertainment/arcade_"}, "pluralName": "Arcades", "name": "Arcade"}], "id": "4f59029da17c26a6017a115f", "hasPerk": false, "location": {"formattedAddress": ["1290 Oak St (at E 13th Ave.)", "Eugene, OR 97401", "United States"], "lng": -123.09146721546857, "crossStreet": "at E 13th Ave.", "city": "Eugene", "distance": 285, "labeledLatLngs": [{"lat": 44.04556934471727, "lng": -123.09146721546857, "label": "display"}], "cc": "US", "lat": 44.04556934471727, "address": "1290 Oak St", "state": "OR", "postalCode": "97401", "country": "United States"}, "name": "Level Up Arcade", "referralId": "v-1576124823"}, {"categories": [{"id": "4bf58dd8d48988d155941735", "shortName": "Gastropub", "primary": true, "icon": {"suffix": ".png", "prefix": "https://ss3.4sqi.net/img/categories_v2/food/gastropub_"}, "pluralName": "Gastropubs", "name": "Gastropub"}], "id": "53e17180498e22f2aef463ad", "venuePage": {"id": "105174714"}, "hasPerk": false, "location": {"formattedAddress": ["27 East 5th Ave. (at Willamette St)", "Eugene, OR 97401", "United States"], "lng": -123.09223459147304, "crossStreet": "at Willamette St", "city": "Eugene", "distance": 984, "labeledLatLngs": [{"lat": 44.05447787772746, "lng": -123.09223459147304, "label": "display"}], "cc": "US", "lat": 44.05447787772746, "address": "27 East 5th Ave.", "state": "OR", "postalCode": "97401", "country": "United States"}, "referralId": "v-1576124823", "name": "Oregon Electric Station"}, {"categories": [{"id": "50327c8591d4c4b30a586d5d", "shortName": "Brewery", "primary": true, "icon": {"suffix": ".png", "prefix": "https://ss3.4sqi.net/img/categories_v2/food/brewery_"}, "pluralName": "Breweries", "name": "Brewery"}], "id": "4ac797e0f964a5204db820e3", "hasPerk": false, "location": {"formattedAddress": ["199 E 5th Ave (at Pearl St)", "Eugene, OR 97401", "United States"], "lng": -123.08986495988853, "crossStreet": "at Pearl St", "city": "Eugene", "distance": 925, "labeledLatLngs": [{"lat": 44.05437817759467, "lng": -123.08986495988853, "label": "display"}], "cc": "US", "lat": 44.05437817759467, "address": "199 E 5th Ave", "state": "OR", "postalCode": "97401", "country": "United States"}, "name": "Steelhead Brewing Company", "referralId": "v-1576124823"}, {"categories": [{"id": "50327c8591d4c4b30a586d5d", "shortName": "Brewery", "primary": true, "icon": {"suffix": ".png", "prefix": "https://ss3.4sqi.net/img/categories_v2/food/brewery_"}, "pluralName": "Breweries", "name": "Brewery"}], "id": "4af9ec4df964a520481522e3", "venuePage": {"id": "45984431"}, "hasPerk": false, "location": {"formattedAddress": ["272 Van Buren St (at W 3rd Ave)", "Eugene, OR 97402", "United States"], "lng": -123.1095389919525, "crossStreet": "at W 3rd Ave", "city": "Eugene", "distance": 2091, "labeledLatLngs": [{"lat": 44.056814534058084, "lng": -123.1095389919525, "label": "display"}], "cc": "US", "lat": 44.056814534058084, "address": "272 Van Buren St", "state": "OR", "postalCode": "97402", "country": "United States"}, "referralId": "v-1576124823", "name": "Ninkasi Brewing Tasting Room"}, {"categories": [{"id": "4bf58dd8d48988d117941735", "shortName": "Beer Garden", "primary": true, "icon": {"suffix": ".png", "prefix": "https://ss3.4sqi.net/img/categories_v2/nightlife/beergarden_"}, "pluralName": "Beer Gardens", "name": "Beer Garden"}], "id": "55735df2498e4ce268246184", "hasPerk": false, "location": {"formattedAddress": ["777 W 6th Ave (Jefferson)", "Eugene, OR 97402", "United States"], "lng": -123.1044047054481, "crossStreet": "Jefferson", "city": "Eugene", "distance": 1551, "labeledLatLngs": [{"lat": 44.05361088864475, "lng": -123.1044047054481, "label": "display"}], "cc": "US", "lat": 44.05361088864475, "address": "777 W 6th Ave", "state": "OR", "postalCode": "97402", "country": "United States"}, "name": "Beergarden", "referralId": "v-1576124823"}, {"categories": [{"id": "4bf58dd8d48988d17e941735", "shortName": "Indie Movies", "primary": true, "icon": {"suffix": ".png", "prefix": "https://ss3.4sqi.net/img/categories_v2/arts_entertainment/movietheater_"}, "pluralName": "Indie Movie Theaters", "name": "Indie Movie Theater"}], "id": "5192c9ddabd800893360120e", "hasPerk": false, "location": {"formattedAddress": ["43 W Broadway (at Willamette St)", "Eugene, OR 97401", "United States"], "lng": -123.0930705295761, "crossStreet": "at Willamette St", "city": "Eugene", "distance": 590, "labeledLatLngs": [{"lat": 44.050030762991355, "lng": -123.0930705295761, "label": "display"}], "cc": "US", "lat": 44.050030762991355, "address": "43 W Broadway", "state": "OR", "postalCode": "97401", "country": "United States"}, "name": "Broadway Metro", "referralId": "v-1576124823"}, {"categories": [{"id": "4bf58dd8d48988d116941735", "shortName": "Bar", "primary": true, "icon": {"suffix": ".png", "prefix": "https://ss3.4sqi.net/img/categories_v2/nightlife/pub_"}, "pluralName": "Bars", "name": "Bar"}], "id": "4b09b9b0f964a520711c23e3", "hasPerk": false, "location": {"formattedAddress": ["830 Olive St (at E 8th St)", "Eugene, OR 97401", "United States"], "lng": -123.09453094474156, "crossStreet": "at E 8th St", "city": "Eugene", "distance": 720, "labeledLatLngs": [{"lat": 44.0506356464749, "lng": -123.09453094474156, "label": "display"}], "cc": "US", "lat": 44.0506356464749, "address": "830 Olive St", "state": "OR", "postalCode": "97401", "country": "United States"}, "name": "The Starlight Lounge", "referralId": "v-1576124823"}, {"categories": [{"id": "56aa371ce4b08b9a8d57356c", "shortName": "Beer Bar", "primary": true, "icon": {"suffix": ".png", "prefix": "https://ss3.4sqi.net/img/categories_v2/nightlife/pub_"}, "pluralName": "Beer Bars", "name": "Beer Bar"}], "id": "524f9d9011d2820650562f48", "hasPerk": false, "location": {"formattedAddress": ["472 W 7th Ave (at Washington St)", "Eugene, OR 97401", "United States"], "lng": -123.09998871862784, "crossStreet": "at Washington St", "city": "Eugene", "distance": 1147, "labeledLatLngs": [{"lat": 44.05183025154752, "lng": -123.09998871862784, "label": "display"}], "cc": "US", "lat": 44.05183025154752, "address": "472 W 7th Ave", "state": "OR", "postalCode": "97401", "country": "United States"}, "name": "The Growler Guys", "referralId": "v-1576124823"}, {"categories": [{"id": "4bf58dd8d48988d11d941735", "shortName": "Sports Bar", "primary": true, "icon": {"suffix": ".png", "prefix": "https://ss3.4sqi.net/img/categories_v2/nightlife/sportsbar_"}, "pluralName": "Sports Bars", "name": "Sports Bar"}], "id": "4b8214f7f964a52000ca30e3", "delivery": {"provider": {"icon": {"prefix": "https://fastly.4sqi.net/img/general/cap/", "name": "/delivery_provider_grubhub_20180129.png", "sizes": [40, 50]}, "name": "grubhub"}, "id": "330347", "url": "https://www.grubhub.com/restaurant/docs-pad-710-willamette-st-eugene/330347?affiliate=1131&utm_source=foursquare-affiliate-network&utm_medium=affiliate&utm_campaign=1131&utm_content=330347"}, "hasPerk": false, "location": {"formattedAddress": ["710 Willamette St (at W 7th Ave)", "Eugene, OR 97401", "United States"], "lng": -123.0927319, "crossStreet": "at W 7th Ave", "city": "Eugene", "distance": 734, "labeledLatLngs": [{"lat": 44.0518252, "lng": -123.0927319, "label": "display"}], "cc": "US", "lat": 44.0518252, "address": "710 Willamette St", "state": "OR", "postalCode": "97401", "country": "United States"}, "referralId": "v-1576124823", "name": "Doc's Pad"}, {"categories": [{"id": "4bf58dd8d48988d116941735", "shortName": "Bar", "primary": true, "icon": {"suffix": ".png", "prefix": "https://ss3.4sqi.net/img/categories_v2/nightlife/pub_"}, "pluralName": "Bars", "name": "Bar"}], "id": "508454f98aca3f16d682c3fa", "hasPerk": false, "location": {"formattedAddress": ["924 Willamette St (at W Broadway)", "Eugene, OR 97401", "United States"], "lng": -123.09291209555661, "crossStreet": "at W Broadway", "city": "Eugene", "distance": 560, "labeledLatLngs": [{"lat": 44.04976907901481, "lng": -123.09291209555661, "label": "display"}], "cc": "US", "lat": 44.04976907901481, "address": "924 Willamette St", "state": "OR", "postalCode": "97401", "country": "United States"}, "name": "The Barn Light - West", "referralId": "v-1576124823"}, {"categories": [{"id": "4bf58dd8d48988d11b941735", "shortName": "Pub", "primary": true, "icon": {"suffix": ".png", "prefix": "https://ss3.4sqi.net/img/categories_v2/nightlife/pub_"}, "pluralName": "Pubs", "name": "Pub"}], "id": "512fba73d63e265e920e3371", "hasPerk": false, "location": {"formattedAddress": ["51 W Broadway (btwn Willamette St & Olive St)", "Eugene, OR 97401", "United States"], "lng": -123.09332601732815, "crossStreet": "btwn Willamette St & Olive St", "city": "Eugene", "distance": 597, "labeledLatLngs": [{"lat": 44.04993043696662, "lng": -123.09332601732815, "label": "display"}], "cc": "US", "lat": 44.04993043696662, "address": "51 W Broadway", "state": "OR", "postalCode": "97401", "country": "United States"}, "name": "First National Taphouse", "referralId": "v-1576124823"}, {"categories": [{"id": "50327c8591d4c4b30a586d5d", "shortName": "Brewery", "primary": true, "icon": {"suffix": ".png", "prefix": "https://ss3.4sqi.net/img/categories_v2/food/brewery_"}, "pluralName": "Breweries", "name": "Brewery"}], "id": "515dcb0439501edb869c3a79", "hasPerk": false, "location": {"formattedAddress": ["207 Madison St (at W 2nd Ave)", "Eugene, OR 97402", "United States"], "lng": -123.10330168510357, "crossStreet": "at W 2nd Ave", "city": "Eugene", "distance": 1751, "labeledLatLngs": [{"lat": 44.0574226615112, "lng": -123.10330168510357, "label": "display"}], "cc": "US", "lat": 44.0574226615112, "address": "207 Madison St", "state": "OR", "postalCode": "97402", "country": "United States"}, "name": "Oakshire Brewing Public House", "referralId": "v-1576124823"}, {"categories": [{"id": "4bf58dd8d48988d16c941735", "shortName": "Burgers", "primary": true, "icon": {"suffix": ".png", "prefix": "https://ss3.4sqi.net/img/categories_v2/food/burger_"}, "pluralName": "Burger Joints", "name": "Burger Joint"}], "id": "53f7f545498e585472b69b46", "delivery": {"provider": {"icon": {"prefix": "https://fastly.4sqi.net/img/general/cap/", "name": "/delivery_provider_grubhub_20180129.png", "sizes": [40, 50]}, "name": "grubhub"}, "id": "984566", "url": "https://www.grubhub.com/restaurant/killer-burger---eugene-50-w-broadway-eugene/984566?affiliate=1131&utm_source=foursquare-affiliate-network&utm_medium=affiliate&utm_campaign=1131&utm_content=984566"}, "hasPerk": false, "location": {"formattedAddress": ["50 W Broadway (at Willamette St)", "Eugene, OR 97401", "United States"], "lng": -123.0931929326472, "crossStreet": "at Willamette St", "city": "Eugene", "distance": 581, "labeledLatLngs": [{"lat": 44.04982338448284, "lng": -123.0931929326472, "label": "display"}], "cc": "US", "lat": 44.04982338448284, "address": "50 W Broadway", "state": "OR", "postalCode": "97401", "country": "United States"}, "referralId": "v-1576124823", "name": "Killer Burger"}, {"categories": [{"id": "4bf58dd8d48988d111941735", "shortName": "Japanese", "primary": true, "icon": {"suffix": ".png", "prefix": "https://ss3.4sqi.net/img/categories_v2/food/japanese_"}, "pluralName": "Japanese Restaurants", "name": "Japanese Restaurant"}], "id": "4c5e09297f661b8d133f4d1c", "hasPerk": false, "location": {"formattedAddress": ["345 Van Buren St (at W 3rd Pl)", "Eugene, OR 97402", "United States"], "lng": -123.10942011976265, "crossStreet": "at W 3rd Pl", "city": "Eugene", "distance": 2040, "labeledLatLngs": [{"lat": 44.05611994679806, "lng": -123.10942011976265, "label": "display"}], "cc": "US", "lat": 44.05611994679806, "address": "345 Van Buren St", "state": "OR", "postalCode": "97402", "country": "United States"}, "name": "Izakaya Meiji Company", "referralId": "v-1576124823"}, {"categories": [{"id": "4bf58dd8d48988d11d941735", "shortName": "Sports Bar", "primary": true, "icon": {"suffix": ".png", "prefix": "https://ss3.4sqi.net/img/categories_v2/nightlife/sportsbar_"}, "pluralName": "Sports Bars", "name": "Sports Bar"}], "id": "4b09bad4f964a5208b1c23e3", "venuePage": {"id": "84312817"}, "hasPerk": false, "location": {"formattedAddress": ["55 W 6th Ave (at Olive St)", "Eugene, OR 97401", "United States"], "lng": -123.09369314657856, "crossStreet": "at Olive St", "city": "Eugene", "distance": 920, "labeledLatLngs": [{"lat": 44.05335722448919, "lng": -123.09369314657856, "label": "display"}], "cc": "US", "lat": 44.05335722448919, "address": "55 W 6th Ave", "state": "OR", "postalCode": "97401", "country": "United States"}, "referralId": "v-1576124823", "name": "Sixth Street Grill"}, {"categories": [{"id": "5370f356bcbc57f1066c94c2", "shortName": "Beer Store", "primary": true, "icon": {"suffix": ".png", "prefix": "https://ss3.4sqi.net/img/categories_v2/nightlife/beergarden_"}, "pluralName": "Beer Stores", "name": "Beer Store"}], "id": "523e4e7511d2ee1515d2c251", "venuePage": {"id": "86552590"}, "hasPerk": false, "location": {"formattedAddress": ["207 E 5th Ave #115 (at Pearl St)", "Eugene, OR 97401", "United States"], "lng": -123.08950134960449, "crossStreet": "at Pearl St", "city": "Eugene", "distance": 944, "labeledLatLngs": [{"lat": 44.054587615306154, "lng": -123.08950134960449, "label": "display"}], "cc": "US", "lat": 44.054587615306154, "address": "207 E 5th Ave #115", "state": "OR", "postalCode": "97401", "country": "United States"}, "referralId": "v-1576124823", "name": "The Tap & Growler"}, {"categories": [{"id": "50327c8591d4c4b30a586d5d", "shortName": "Brewery", "primary": true, "icon": {"suffix": ".png", "prefix": "https://ss3.4sqi.net/img/categories_v2/food/brewery_"}, "pluralName": "Breweries", "name": "Brewery"}], "id": "4ab6f2b2f964a520907920e3", "hasPerk": false, "location": {"formattedAddress": ["1485 E 19th Ave (at Agate St)", "Eugene, OR 97403", "United States"], "lng": -123.06998738341707, "crossStreet": "at Agate St", "city": "Eugene", "distance": 1633, "labeledLatLngs": [{"lat": 44.03927000800376, "lng": -123.06998738341707, "label": "display"}], "cc": "US", "lat": 44.03927000800376, "address": "1485 E 19th Ave", "state": "OR", "postalCode": "97403", "country": "United States"}, "name": "East 19th Street Cafe", "referralId": "v-1576124823"}, {"categories": [{"id": "50327c8591d4c4b30a586d5d", "shortName": "Brewery", "primary": true, "icon": {"suffix": ".png", "prefix": "https://ss3.4sqi.net/img/categories_v2/food/brewery_"}, "pluralName": "Breweries", "name": "Brewery"}], "id": "4ea5ed75754afc1baa1125e6", "delivery": {"provider": {"icon": {"prefix": "https://fastly.4sqi.net/img/general/cap/", "name": "/delivery_provider_grubhub_20180129.png", "sizes": [40, 50]}, "name": "grubhub"}, "id": "990404", "url": "https://www.grubhub.com/restaurant/falling-sky-brewing-house-1334-oak-aly-eugene/990404?affiliate=1131&utm_source=foursquare-affiliate-network&utm_medium=affiliate&utm_campaign=1131&utm_content=990404"}, "hasPerk": false, "location": {"formattedAddress": ["1334 Oak Alley (btwn Willamette & Oak St)", "Eugene, OR 97401", "United States"], "lng": -123.09221908640333, "crossStreet": "btwn Willamette & Oak St", "city": "Eugene", "distance": 355, "labeledLatLngs": [{"lat": 44.045175604882516, "lng": -123.09221908640333, "label": "display"}], "cc": "US", "lat": 44.045175604882516, "address": "1334 Oak Alley", "state": "OR", "postalCode": "97401", "country": "United States"}, "referralId": "v-1576124823", "name": "Falling Sky Brewing"}, {"categories": [{"id": "4bf58dd8d48988d11d941735", "shortName": "Sports Bar", "primary": true, "icon": {"suffix": ".png", "prefix": "https://ss3.4sqi.net/img/categories_v2/nightlife/sportsbar_"}, "pluralName": "Sports Bars", "name": "Sports Bar"}], "id": "4ab69be1f964a520207820e3", "hasPerk": false, "location": {"formattedAddress": ["894 E 13th Ave (at Kinkaid St)", "Eugene, OR 97401", "United States"], "lng": -123.07899200909573, "crossStreet": "at Kinkaid St", "city": "Eugene", "distance": 724, "labeledLatLngs": [{"lat": 44.04548401771355, "lng": -123.07899200909573, "label": "display"}], "cc": "US", "lat": 44.04548401771355, "address": "894 E 13th Ave", "state": "OR", "postalCode": "97401", "country": "United States"}, "name": "Taylor's Bar & Grille", "referralId": "v-1576124823"}, {"categories": [{"id": "50327c8591d4c4b30a586d5d", "shortName": "Brewery", "primary": true, "icon": {"suffix": ".png", "prefix": "https://ss3.4sqi.net/img/categories_v2/food/brewery_"}, "pluralName": "Breweries", "name": "Brewery"}], "id": "53441169498eabb1b149f339", "venuePage": {"id": "99619693"}, "hasPerk": false, "location": {"formattedAddress": ["686 E Broadway (at Hilyard St)", "Eugene, OR 97401", "United States"], "lng": -123.08242799438956, "crossStreet": "at Hilyard St", "city": "Eugene", "distance": 592, "labeledLatLngs": [{"lat": 44.04968441051894, "lng": -123.08242799438956, "label": "display"}], "cc": "US", "lat": 44.04968441051894, "address": "686 E Broadway", "state": "OR", "postalCode": "97401", "country": "United States"}, "referralId": "v-1576124823", "name": "The Elk Horn Brewery & Ciderhouse"}, {"categories": [{"id": "50327c8591d4c4b30a586d5d", "shortName": "Brewery", "primary": true, "icon": {"suffix": ".png", "prefix": "https://ss3.4sqi.net/img/categories_v2/food/brewery_"}, "pluralName": "Breweries", "name": "Brewery"}], "id": "56a42567498e6a104f884635", "hasPerk": false, "location": {"formattedAddress": ["263 Mill St (at 3rd St)", "Eugene, OR 97401", "United States"], "lng": -123.08626676864058, "crossStreet": "at 3rd St", "city": "Eugene", "distance": 1208, "labeledLatLngs": [{"lat": 44.05695532461806, "lng": -123.08626676864058, "label": "display"}], "cc": "US", "lat": 44.05695532461806, "address": "263 Mill St", "state": "OR", "postalCode": "97401", "country": "United States"}, "name": "ColdFire Brewing", "referralId": "v-1576124823"}, {"categories": [{"id": "4bf58dd8d48988d14e941735", "shortName": "American", "primary": true, "icon": {"suffix": ".png", "prefix": "https://ss3.4sqi.net/img/categories_v2/food/default_"}, "pluralName": "American Restaurants", "name": "American Restaurant"}], "id": "4ab6a11ff964a520407820e3", "venuePage": {"id": "42173006"}, "delivery": {"provider": {"icon": {"prefix": "https://fastly.4sqi.net/img/general/cap/", "name": "/delivery_provider_grubhub_20180129.png", "sizes": [40, 50]}, "name": "grubhub"}, "id": "1332755", "url": "https://www.grubhub.com/restaurant/the-cooler-restaurant--bar-20-centennial-loop-eugene/1332755?affiliate=1131&utm_source=foursquare-affiliate-network&utm_medium=affiliate&utm_campaign=1131&utm_content=1332755"}, "hasPerk": false, "location": {"formattedAddress": ["20 Centennial Loop (at MLK Jr. Blvd)", "Eugene, OR 97401", "United States"], "lng": -123.08029747047404, "crossStreet": "at MLK Jr. Blvd", "city": "Eugene", "distance": 1678, "labeledLatLngs": [{"lat": 44.06020263945611, "lng": -123.08029747047404, "label": "display"}], "cc": "US", "lat": 44.06020263945611, "address": "20 Centennial Loop", "state": "OR", "postalCode": "97401", "country": "United States"}, "referralId": "v-1576124823", "name": "The Cooler Restaurant & Bar"}, {"categories": [{"id": "50327c8591d4c4b30a586d5d", "shortName": "Brewery", "primary": true, "icon": {"suffix": ".png", "prefix": "https://ss3.4sqi.net/img/categories_v2/food/brewery_"}, "pluralName": "Breweries", "name": "Brewery"}], "id": "512fbc8bd63e265e9211b3c2", "venuePage": {"id": "71118660"}, "delivery": {"provider": {"icon": {"prefix": "https://fastly.4sqi.net/img/general/cap/", "name": "/delivery_provider_grubhub_20180129.png", "sizes": [40, 50]}, "name": "grubhub"}, "id": "990568", "url": "https://www.grubhub.com/restaurant/falling-sky-delicatessen-790-blair-blvd-eugene/990568?affiliate=1131&utm_source=foursquare-affiliate-network&utm_medium=affiliate&utm_campaign=1131&utm_content=990568"}, "hasPerk": false, "location": {"formattedAddress": ["790 Blair Blvd (at W 8th Ave)", "Eugene, OR 97402", "United States"], "lng": -123.10539163427654, "crossStreet": "at W 8th Ave", "city": "Eugene", "distance": 1493, "labeledLatLngs": [{"lat": 44.05104006708514, "lng": -123.10539163427654, "label": "display"}], "cc": "US", "lat": 44.05104006708514, "address": "790 Blair Blvd", "state": "OR", "postalCode": "97402", "country": "United States"}, "referralId": "v-1576124823", "name": "Falling Sky Delicatessen Pour House"}, {"categories": [{"id": "4bf58dd8d48988d16c941735", "shortName": "Burgers", "primary": true, "icon": {"suffix": ".png", "prefix": "https://ss3.4sqi.net/img/categories_v2/food/burger_"}, "pluralName": "Burger Joints", "name": "Burger Joint"}], "id": "4b12c500f964a520bd8d23e3", "venuePage": {"id": "57579173"}, "hasPerk": false, "location": {"formattedAddress": ["207 E 5th Ave (at Pearl St.)", "Eugene, OR 97401", "United States"], "lng": -123.08950598993805, "crossStreet": "at Pearl St.", "city": "Eugene", "distance": 954, "labeledLatLngs": [{"lat": 44.05468311943812, "lng": -123.08950598993805, "label": "display"}], "cc": "US", "lat": 44.05468311943812, "address": "207 E 5th Ave", "state": "OR", "postalCode": "97401", "country": "United States"}, "referralId": "v-1576124823", "name": "Cornucopia Bar & Burgers"}, {"categories": [{"id": "4bf58dd8d48988d11b941735", "shortName": "Pub", "primary": true, "icon": {"suffix": ".png", "prefix": "https://ss3.4sqi.net/img/categories_v2/nightlife/pub_"}, "pluralName": "Pubs", "name": "Pub"}], "id": "4ac6738ff964a52063b420e3", "hasPerk": false, "location": {"formattedAddress": ["550 E 13th Ave (at Patterson St)", "Eugene, OR 97401", "United States"], "lng": -123.08438507558897, "crossStreet": "at Patterson St", "city": "Eugene", "distance": 302, "labeledLatLngs": [{"lat": 44.045378800437305, "lng": -123.08438507558897, "label": "display"}], "cc": "US", "lat": 44.045378800437305, "address": "550 E 13th Ave", "state": "OR", "postalCode": "97401", "country": "United States"}, "name": "Max's Tavern", "referralId": "v-1576124823"}, {"categories": [{"id": "4bf58dd8d48988d11b941735", "shortName": "Pub", "primary": true, "icon": {"suffix": ".png", "prefix": "https://ss3.4sqi.net/img/categories_v2/nightlife/pub_"}, "pluralName": "Pubs", "name": "Pub"}], "id": "4ec9a597722e143798f1ed3b", "delivery": {"provider": {"icon": {"prefix": "https://fastly.4sqi.net/img/general/cap/", "name": "/delivery_provider_grubhub_20180129.png", "sizes": [40, 50]}, "name": "grubhub"}, "id": "1028827", "url": "https://www.grubhub.com/restaurant/wild-duck-cafe-1419-villard-st-eugene/1028827?affiliate=1131&utm_source=foursquare-affiliate-network&utm_medium=affiliate&utm_campaign=1131&utm_content=1028827"}, "hasPerk": false, "location": {"formattedAddress": ["1419 Villard St", "Eugene, OR 97403", "United States"], "lat": 44.04421997122662, "lng": -123.06469976302158, "city": "Eugene", "distance": 1877, "labeledLatLngs": [{"lat": 44.04421997122662, "lng": -123.06469976302158, "label": "display"}], "state": "OR", "address": "1419 Villard St", "postalCode": "97403", "cc": "US", "country": "United States"}, "referralId": "v-1576124823", "name": "Wild Duck Caf\u00e9"}, {"categories": [{"id": "50327c8591d4c4b30a586d5d", "shortName": "Brewery", "primary": true, "icon": {"suffix": ".png", "prefix": "https://ss3.4sqi.net/img/categories_v2/food/brewery_"}, "pluralName": "Breweries", "name": "Brewery"}], "id": "509430aa7ab4da9e7e862332", "venuePage": {"id": "67696849"}, "delivery": {"provider": {"icon": {"prefix": "https://fastly.4sqi.net/img/general/cap/", "name": "/delivery_provider_grubhub_20180129.png", "sizes": [40, 50]}, "name": "grubhub"}, "id": "990522", "url": "https://www.grubhub.com/restaurant/hop-valley---eugene-990-w-1st-ave-eugene/990522?affiliate=1131&utm_source=foursquare-affiliate-network&utm_medium=affiliate&utm_campaign=1131&utm_content=990522"}, "hasPerk": false, "location": {"formattedAddress": ["990 W 1st Ave", "Eugene, OR 97402", "United States"], "lat": 44.058474740002815, "lng": -123.10766019147533, "city": "Eugene", "distance": 2085, "labeledLatLngs": [{"lat": 44.058474740002815, "lng": -123.10766019147533, "label": "display"}], "state": "OR", "address": "990 W 1st Ave", "postalCode": "97402", "cc": "US", "country": "United States"}, "referralId": "v-1576124823", "name": "Hop Valley Brewing Co."}, {"categories": [{"id": "4bf58dd8d48988d116941735", "shortName": "Bar", "primary": true, "icon": {"suffix": ".png", "prefix": "https://ss3.4sqi.net/img/categories_v2/nightlife/pub_"}, "pluralName": "Bars", "name": "Bar"}], "id": "4ab69b40f964a5201d7820e3", "hasPerk": false, "location": {"formattedAddress": ["1214 Kincaid St (at E 12th Ave)", "Eugene, OR 97401", "United States"], "lng": -123.07888, "crossStreet": "at E 12th Ave", "city": "Eugene", "distance": 730, "labeledLatLngs": [{"lat": 44.04641, "lng": -123.07888, "label": "display"}], "cc": "US", "lat": 44.04641, "address": "1214 Kincaid St", "state": "OR", "postalCode": "97401", "country": "United States"}, "name": "Rennie's Landing", "referralId": "v-1576124823"}, {"categories": [{"id": "4bf58dd8d48988d11d941735", "shortName": "Sports Bar", "primary": true, "icon": {"suffix": ".png", "prefix": "https://ss3.4sqi.net/img/categories_v2/nightlife/sportsbar_"}, "pluralName": "Sports Bars", "name": "Sports Bar"}], "id": "4ab69ae8f964a520197820e3", "hasPerk": false, "location": {"formattedAddress": ["375 E 7th Ave (at High St)", "Eugene, OR 97401", "United States"], "lng": -123.0871410394544, "crossStreet": "at High St", "city": "Eugene", "distance": 736, "labeledLatLngs": [{"lat": 44.0527627744623, "lng": -123.0871410394544, "label": "display"}], "cc": "US", "lat": 44.0527627744623, "address": "375 E 7th Ave", "state": "OR", "postalCode": "97401", "country": "United States"}, "name": "GoodTimes Cafe & Bar", "referralId": "v-1576124823"}, {"categories": [{"id": "4bf58dd8d48988d11d941735", "shortName": "Sports Bar", "primary": true, "icon": {"suffix": ".png", "prefix": "https://ss3.4sqi.net/img/categories_v2/nightlife/sportsbar_"}, "pluralName": "Sports Bars", "name": "Sports Bar"}], "id": "4ec829a69adf9c7bf3e21902", "hasPerk": false, "location": {"formattedAddress": ["839 E 13th Ave (btwn Alder & Kincaid St.)", "Eugene, OR 97401", "United States"], "lng": -123.07959857451354, "crossStreet": "btwn Alder & Kincaid St.", "city": "Eugene", "distance": 673, "labeledLatLngs": [{"lat": 44.045752872139545, "lng": -123.07959857451354, "label": "display"}], "cc": "US", "lat": 44.045752872139545, "address": "839 E 13th Ave", "state": "OR", "postalCode": "97401", "country": "United States"}, "name": "Webfoot Bar & Grill", "referralId": "v-1576124823"}, {"categories": [{"id": "50327c8591d4c4b30a586d5d", "shortName": "Brewery", "primary": true, "icon": {"suffix": ".png", "prefix": "https://ss3.4sqi.net/img/categories_v2/food/brewery_"}, "pluralName": "Breweries", "name": "Brewery"}], "id": "4ab6f37af964a520927920e3", "hasPerk": false, "location": {"formattedAddress": ["22 Club Rd", "Eugene, OR 97401", "United States"], "lat": 44.05960423096298, "lng": -123.08497784846038, "city": "Eugene", "distance": 1514, "labeledLatLngs": [{"lat": 44.05960423096298, "lng": -123.08497784846038, "label": "display"}], "state": "OR", "address": "22 Club Rd", "postalCode": "97401", "cc": "US", "country": "United States"}, "name": "McMenamins North Bank", "referralId": "v-1576124823"}, {"categories": [{"id": "4bf58dd8d48988d123941735", "shortName": "Wine Bar", "primary": true, "icon": {"suffix": ".png", "prefix": "https://ss3.4sqi.net/img/categories_v2/food/winery_"}, "pluralName": "Wine Bars", "name": "Wine Bar"}], "id": "5283d27c11d25c1f6d9fe581", "venuePage": {"id": "76290831"}, "hasPerk": false, "location": {"formattedAddress": ["488 Lincoln St (at W 5th Ave)", "Eugene, OR 97401", "United States"], "lng": -123.09757690149426, "crossStreet": "at W 5th Ave", "city": "Eugene", "distance": 1210, "labeledLatLngs": [{"lat": 44.05459363569431, "lng": -123.09757690149426, "label": "display"}], "cc": "US", "lat": 44.05459363569431, "address": "488 Lincoln St", "state": "OR", "postalCode": "97401", "country": "United States"}, "referralId": "v-1576124823", "name": "Oregon Wine LAB"}, {"categories": [{"id": "4bf58dd8d48988d116941735", "shortName": "Bar", "primary": true, "icon": {"suffix": ".png", "prefix": "https://ss3.4sqi.net/img/categories_v2/nightlife/pub_"}, "pluralName": "Bars", "name": "Bar"}], "id": "4aee4721f964a52053d321e3", "hasPerk": false, "location": {"formattedAddress": ["453 Willamette St (at 5th Ave)", "Eugene, OR 97401", "United States"], "lng": -123.09255449608612, "crossStreet": "at 5th Ave", "city": "Eugene", "distance": 1037, "labeledLatLngs": [{"lat": 44.054896307501664, "lng": -123.09255449608612, "label": "display"}], "cc": "US", "lat": 44.054896307501664, "address": "453 Willamette St", "state": "OR", "postalCode": "97401", "country": "United States"}, "name": "Jackalope Lounge", "referralId": "v-1576124823"}, {"categories": [{"id": "4bf58dd8d48988d110941735", "shortName": "Italian", "primary": true, "icon": {"suffix": ".png", "prefix": "https://ss3.4sqi.net/img/categories_v2/food/italian_"}, "pluralName": "Italian Restaurants", "name": "Italian Restaurant"}], "id": "4b47d5aff964a520db4026e3", "delivery": {"provider": {"icon": {"prefix": "https://fastly.4sqi.net/img/general/cap/", "name": "/delivery_provider_grubhub_20180129.png", "sizes": [40, 50]}, "name": "grubhub"}, "id": "1335503", "url": "https://www.grubhub.com/restaurant/ambrosia-restaurant--bar-174-east-broadway-eugene/1335503?affiliate=1131&utm_source=foursquare-affiliate-network&utm_medium=affiliate&utm_campaign=1131&utm_content=1335503"}, "hasPerk": false, "location": {"formattedAddress": ["174 E Broadway (at Pearl St)", "Eugene, OR 97401", "United States"], "lng": -123.09004747206274, "crossStreet": "at Pearl St", "city": "Eugene", "distance": 434, "labeledLatLngs": [{"lat": 44.04978542793176, "lng": -123.09004747206274, "label": "display"}], "cc": "US", "lat": 44.04978542793176, "address": "174 E Broadway", "state": "OR", "postalCode": "97401", "country": "United States"}, "referralId": "v-1576124823", "name": "Ambrosia"}, {"categories": [{"id": "4bf58dd8d48988d116941735", "shortName": "Bar", "primary": true, "icon": {"suffix": ".png", "prefix": "https://ss3.4sqi.net/img/categories_v2/nightlife/pub_"}, "pluralName": "Bars", "name": "Bar"}], "id": "4fa83faabb3da924fcd4b778", "delivery": {"provider": {"icon": {"prefix": "https://fastly.4sqi.net/img/general/cap/", "name": "/delivery_provider_grubhub_20180129.png", "sizes": [40, 50]}, "name": "grubhub"}, "id": "1513125", "url": "https://www.grubhub.com/restaurant/the-flying-squirrel-49-west-29th-avenue-eugene/1513125?affiliate=1131&utm_source=foursquare-affiliate-network&utm_medium=affiliate&utm_campaign=1131&utm_content=1513125"}, "hasPerk": false, "location": {"formattedAddress": ["49 W 29th Ave (at Willamette St.)", "Eugene, OR 97405", "United States"], "lng": -123.09202005419921, "crossStreet": "at Willamette St.", "city": "Eugene", "distance": 2228, "labeledLatLngs": [{"lat": 44.02636126188542, "lng": -123.09202005419921, "label": "display"}], "cc": "US", "lat": 44.02636126188542, "address": "49 W 29th Ave", "state": "OR", "postalCode": "97405", "country": "United States"}, "referralId": "v-1576124823", "name": "The Flying Squirrel Tavern"}, {"categories": [{"id": "4bf58dd8d48988d1e1931735", "shortName": "Arcade", "primary": true, "icon": {"suffix": ".png", "prefix": "https://ss3.4sqi.net/img/categories_v2/arts_entertainment/arcade_"}, "pluralName": "Arcades", "name": "Arcade"}], "id": "4e04d3591fc7116f1e96f8dd", "hasPerk": false, "location": {"formattedAddress": ["245 Blair Blvd (at W 2nd Ave)", "Eugene, OR 97402", "United States"], "lng": -123.11049644298377, "crossStreet": "at W 2nd Ave", "city": "Eugene", "distance": 2179, "labeledLatLngs": [{"lat": 44.05721233419196, "lng": -123.11049644298377, "label": "display"}], "cc": "US", "lat": 44.05721233419196, "address": "245 Blair Blvd", "state": "OR", "postalCode": "97402", "country": "United States"}, "name": "Blairally Vintage Arcade", "referralId": "v-1576124823"}, {"categories": [{"id": "4bf58dd8d48988d1f5941735", "shortName": "Gourmet", "primary": true, "icon": {"suffix": ".png", "prefix": "https://ss3.4sqi.net/img/categories_v2/shops/food_gourmet_"}, "pluralName": "Gourmet Shops", "name": "Gourmet Shop"}], "id": "4b48b62ef964a520b55326e3", "hasPerk": false, "location": {"formattedAddress": ["2489 Willamette St (at E 25th Ave)", "Eugene, OR 97405", "United States"], "lng": -123.09038022825439, "crossStreet": "at E 25th Ave", "city": "Eugene", "distance": 1626, "labeledLatLngs": [{"lat": 44.03166170479206, "lng": -123.09038022825439, "label": "display"}], "cc": "US", "lat": 44.03166170479206, "address": "2489 Willamette St", "state": "OR", "postalCode": "97405", "country": "United States"}, "name": "Capella Market", "referralId": "v-1576124823"}], "votes": {"5acd5160f96b2c02c137e313": 0, "512fba73d63e265e920e3371": 0, "4ab6f238f964a5208f7920e3": 0, "4ab6f2b2f964a520907920e3": 0, "5d7c794d72c4090008992e10": 0, "4af9ec4df964a520481522e3": 0, "524f9d9011d2820650562f48": 0, "4e04d3591fc7116f1e96f8dd": 0, "4ab69b40f964a5201d7820e3": 0, "4b8214f7f964a52000ca30e3": 0, "4ac6738ff964a52063b420e3": 0, "53e17180498e22f2aef463ad": 0, "5b8b4d5b9f8a9f0039df88db": 0, "5acb5ffa4186866c64894033": 0, "4b12c500f964a520bd8d23e3": 0, "4fa83faabb3da924fcd4b778": 0, "4f59029da17c26a6017a115f": 0, "523e4e7511d2ee1515d2c251": 0, "4c5e09297f661b8d133f4d1c": 0, "53441169498eabb1b149f339": 0, "55735df2498e4ce268246184": 0, "4b09bad4f964a5208b1c23e3": 0, "4aee4721f964a52053d321e3": 0, "4b48b62ef964a520b55326e3": 0, "508454f98aca3f16d682c3fa": 0, "4ec829a69adf9c7bf3e21902": 0, "4b09b9b0f964a520711c23e3": 0, "4ab6a11ff964a520407820e3": 0, "515dcb0439501edb869c3a79": 0, "53f7f545498e585472b69b46": 0, "5c283acb1ffed7002ce9062f": 0, "4ec9a597722e143798f1ed3b": 0, "553ac46e498edaf4b05b7b2e": 0, "51919c6a498eb1c3ddce7adf": 0, "5283d27c11d25c1f6d9fe581": 0, "4ac797e0f964a5204db820e3": 0, "4ab6f37af964a520927920e3": 0, "5192c9ddabd800893360120e": 0, "4ab69be1f964a520207820e3": 0, "4ab69ae8f964a520197820e3": 3, "5531f383498e051a1d24f3c4": 0, "509430aa7ab4da9e7e862332": 0, "5b00b31ae96d0c00396037c8": 0, "512fbc8bd63e265e9211b3c2": 0, "4b47d5aff964a520db4026e3": 0, "4bab0c3df964a5200c933ae3": 0, "539b8d21498ee5525ababa6b": 0, "5766ec3c498e4316ba9414c2": 0, "56a42567498e6a104f884635": 0, "4ea5ed75754afc1baa1125e6": 0}, "visited": {"5acd5160f96b2c02c137e313": false, "512fba73d63e265e920e3371": false, "4ab6f238f964a5208f7920e3": false, "4ab6f2b2f964a520907920e3": false, "5d7c794d72c4090008992e10": false, "4af9ec4df964a520481522e3": false, "524f9d9011d2820650562f48": false, "4e04d3591fc7116f1e96f8dd": false, "4ab69b40f964a5201d7820e3": false, "4b8214f7f964a52000ca30e3": false, "4ac6738ff964a52063b420e3": false, "53e17180498e22f2aef463ad": false, "5b8b4d5b9f8a9f0039df88db": false, "5acb5ffa4186866c64894033": false, "4b12c500f964a520bd8d23e3": false, "4fa83faabb3da924fcd4b778": false, "4f59029da17c26a6017a115f": false, "523e4e7511d2ee1515d2c251": false, "4c5e09297f661b8d133f4d1c": false, "53441169498eabb1b149f339": false, "55735df2498e4ce268246184": false, "4b09bad4f964a5208b1c23e3": false, "4aee4721f964a52053d321e3": false, "4b48b62ef964a520b55326e3": false, "508454f98aca3f16d682c3fa": false, "4ec829a69adf9c7bf3e21902": false, "4b09b9b0f964a520711c23e3": false, "4ab6a11ff964a520407820e3": false, "515dcb0439501edb869c3a79": false, "53f7f545498e585472b69b46": false, "5c283acb1ffed7002ce9062f": false, "4ec9a597722e143798f1ed3b": false, "553ac46e498edaf4b05b7b2e": false, "51919c6a498eb1c3ddce7adf": false, "5283d27c11d25c1f6d9fe581": false, "4ac797e0f964a5204db820e3": false, "4ab6f37af964a520927920e3": false, "5192c9ddabd800893360120e": false, "4ab69be1f964a520207820e3": false, "4ab69ae8f964a520197820e3": true, "5531f383498e051a1d24f3c4": false, "509430aa7ab4da9e7e862332": false, "5b00b31ae96d0c00396037c8": false, "512fbc8bd63e265e9211b3c2": false, "4b47d5aff964a520db4026e3": false, "4bab0c3df964a5200c933ae3": false, "539b8d21498ee5525ababa6b": false, "5766ec3c498e4316ba9414c2": false, "56a42567498e6a104f884635": false, "4ea5ed75754afc1baa1125e6": false}, "name": null, "id": "096e4023-4b01-4649-998d-238a91cbb63a"}