{"visited": {"5b8b4d5b9f8a9f0039df88db": false, "4b48b62ef964a520b55326e3": false, "4f59029da17c26a6017a115f": false, "512fba73d63e265e920e3371": false, "53e17180498e22f2aef463ad": false, "5b00b31ae96d0c00396037c8": false, "4aee4721f964a52053d321e3": false, "4e04d3591fc7116f1e96f8dd": false, "4f4bc1f0e4b093da151d7522": false, "55735df2498e4ce268246184": false, "51919c6a498eb1c3ddce7adf": false, "5acd5160f96b2c02c137e313": false, "509430aa7ab4da9e7e862332": false, "4b12c500f964a520bd8d23e3": false, "4fa83faabb3da924fcd4b778": false, "5d7c794d72c4090008992e10": false, "5466fe3d498e524c164fd42e": false, "4ec9a597722e143798f1ed3b": false, "4ec829a69adf9c7bf3e21902": false, "56a42567498e6a104f884635": false, "53441169498eabb1b149f339": false, "596820058b98fd6fb9b896fe": false, "5766ec3c498e4316ba9414c2": false, "5192c9ddabd800893360120e": false, "5283d27c11d25c1f6d9fe581": false, "512fbc8bd63e265e9211b3c2": false, "4b09bad4f964a5208b1c23e3": false, "4ee9749102d5d0dbe49de62c": false, "553ac46e498edaf4b05b7b2e": false, "508454f98aca3f16d682c3fa": false, "5cbbba8ca30619002c9bbe44": false, "515dcb0439501edb869c3a79": false, "4bab0c3df964a5200c933ae3": false, "4b09b860f964a520571c23e3": false, "5acb5ffa4186866c64894033": false, "5d363b049bc0e700086eaa7b": false, "4c5e09297f661b8d133f4d1c": false, "5531f383498e051a1d24f3c4": false, "4b09b9b0f964a520711c23e3": false, "523e4e7511d2ee1515d2c251": false, "5998c0e4603d2a67152178b5": false, "5c283acb1ffed7002ce9062f": false, "4b47d5aff964a520db4026e3": false, "4ac797e0f964a5204db820e3": false, "4b654decf964a5208cec2ae3": false, "4ac6738ff964a52063b420e3": false, "5ac92b9ed552c7757d343fdb": false, "524f9d9011d2820650562f48": false, "4ea5ed75754afc1baa1125e6": false, "53f7f545498e585472b69b46": false}, "name": null, "votes": {"5b8b4d5b9f8a9f0039df88db": 1, "4b48b62ef964a520b55326e3": 1, "4f59029da17c26a6017a115f": 1, "512fba73d63e265e920e3371": 1, "53e17180498e22f2aef463ad": 1, "5b00b31ae96d0c00396037c8": 1, "4aee4721f964a52053d321e3": 1, "4e04d3591fc7116f1e96f8dd": 1, "4f4bc1f0e4b093da151d7522": 1, "55735df2498e4ce268246184": 1, "51919c6a498eb1c3ddce7adf": 1, "5acd5160f96b2c02c137e313": 1, "509430aa7ab4da9e7e862332": 1, "4b12c500f964a520bd8d23e3": 1, "4fa83faabb3da924fcd4b778": 1, "5d7c794d72c4090008992e10": 1, "5466fe3d498e524c164fd42e": 1, "4ec9a597722e143798f1ed3b": 1, "4ec829a69adf9c7bf3e21902": 1, "56a42567498e6a104f884635": 1, "53441169498eabb1b149f339": 1, "596820058b98fd6fb9b896fe": 1, "5766ec3c498e4316ba9414c2": 1, "5192c9ddabd800893360120e": 1, "5283d27c11d25c1f6d9fe581": 1, "512fbc8bd63e265e9211b3c2": 1, "4b09bad4f964a5208b1c23e3": 1, "4ee9749102d5d0dbe49de62c": 1, "553ac46e498edaf4b05b7b2e": 1, "508454f98aca3f16d682c3fa": 1, "5cbbba8ca30619002c9bbe44": 1, "515dcb0439501edb869c3a79": 1, "4bab0c3df964a5200c933ae3": 1, "4b09b860f964a520571c23e3": 1, "5acb5ffa4186866c64894033": 1, "5d363b049bc0e700086eaa7b": 1, "4c5e09297f661b8d133f4d1c": 1, "5531f383498e051a1d24f3c4": 1, "4b09b9b0f964a520711c23e3": 1, "523e4e7511d2ee1515d2c251": 1, "5998c0e4603d2a67152178b5": 1, "5c283acb1ffed7002ce9062f": 1, "4b47d5aff964a520db4026e3": 1, "4ac797e0f964a5204db820e3": 1, "4b654decf964a5208cec2ae3": 1, "4ac6738ff964a52063b420e3": 2, "5ac92b9ed552c7757d343fdb": 1, "524f9d9011d2820650562f48": 1, "4ea5ed75754afc1baa1125e6": 1, "53f7f545498e585472b69b46": 1}, "id": "e318ca18-a7a6-4804-81c1-58369bb39a28", "places": [{"hasPerk": false, "referralId": "v-1576201589", "name": "Level Up Arcade", "categories": [{"shortName": "Arcade", "icon": {"prefix": "https://ss3.4sqi.net/img/categories_v2/arts_entertainment/arcade_", "suffix": ".png"}, "primary": true, "name": "Arcade", "id": "4bf58dd8d48988d1e1931735", "pluralName": "Arcades"}], "location": {"cc": "US", "postalCode": "97401", "labeledLatLngs": [{"lng": -123.09146721546857, "label": "display", "lat": 44.04556934471727}], "crossStreet": "at E 13th Ave.", "distance": 285, "address": "1290 Oak St", "city": "Eugene", "state": "OR", "formattedAddress": ["1290 Oak St (at E 13th Ave.)", "Eugene, OR 97401", "United States"], "lng": -123.09146721546857, "country": "United States", "lat": 44.04556934471727}, "id": "4f59029da17c26a6017a115f"}, {"hasPerk": false, "referralId": "v-1576201589", "name": "The Fir", "categories": [{"shortName": "Hotel Bar", "icon": {"prefix": "https://ss3.4sqi.net/img/categories_v2/travel/hotel_bar_", "suffix": ".png"}, "primary": true, "name": "Hotel Bar", "id": "4bf58dd8d48988d1d5941735", "pluralName": "Hotel Bars"}], "location": {"cc": "US", "postalCode": "97401", "labeledLatLngs": [{"lng": -123.092342, "label": "display", "lat": 44.052737}], "crossStreet": "at Willamette St", "distance": 808, "address": "66 E 6th Ave", "city": "Eugene", "state": "OR", "formattedAddress": ["66 E 6th Ave (at Willamette St)", "Eugene, OR 97401", "United States"], "lng": -123.092342, "country": "United States", "lat": 44.052737}, "id": "5d7c794d72c4090008992e10"}, {"hasPerk": false, "referralId": "v-1576201589", "name": "Party Downtown", "categories": [{"shortName": "American", "icon": {"prefix": "https://ss3.4sqi.net/img/categories_v2/food/default_", "suffix": ".png"}, "primary": true, "name": "American Restaurant", "id": "4bf58dd8d48988d14e941735", "pluralName": "American Restaurants"}], "location": {"cc": "US", "city": "Eugene", "postalCode": "97401", "labeledLatLngs": [{"lng": -123.09352033705778, "label": "display", "lat": 44.05023952583174}], "lat": 44.05023952583174, "address": "55 W Broadway", "distance": 632, "lng": -123.09352033705778, "country": "United States", "state": "OR", "formattedAddress": ["55 W Broadway", "Eugene, OR 97401", "United States"]}, "id": "51919c6a498eb1c3ddce7adf"}, {"hasPerk": false, "referralId": "v-1576201589", "name": "Max's Tavern", "categories": [{"shortName": "Pub", "icon": {"prefix": "https://ss3.4sqi.net/img/categories_v2/nightlife/pub_", "suffix": ".png"}, "primary": true, "name": "Pub", "id": "4bf58dd8d48988d11b941735", "pluralName": "Pubs"}], "location": {"cc": "US", "postalCode": "97401", "labeledLatLngs": [{"lng": -123.08438507558897, "label": "display", "lat": 44.045378800437305}], "crossStreet": "at Patterson St", "distance": 302, "address": "550 E 13th Ave", "city": "Eugene", "state": "OR", "formattedAddress": ["550 E 13th Ave (at Patterson St)", "Eugene, OR 97401", "United States"], "lng": -123.08438507558897, "country": "United States", "lat": 44.045378800437305}, "id": "4ac6738ff964a52063b420e3"}, {"hasPerk": false, "referralId": "v-1576201589", "name": "Viking Braggot Southtowne", "categories": [{"shortName": "Brewery", "icon": {"prefix": "https://ss3.4sqi.net/img/categories_v2/food/brewery_", "suffix": ".png"}, "primary": true, "name": "Brewery", "id": "50327c8591d4c4b30a586d5d", "pluralName": "Breweries"}], "location": {"cc": "US", "city": "Eugene", "postalCode": "97405", "labeledLatLngs": [{"lng": -123.09106, "label": "display", "lat": 44.0316}], "lat": 44.0316, "state": "OR", "distance": 1640, "lng": -123.09106, "country": "United States", "formattedAddress": ["Eugene, OR 97405", "United States"]}, "id": "5b00b31ae96d0c00396037c8"}, {"hasPerk": false, "referralId": "v-1576201589", "name": "Claim 52 Kitchen", "categories": [{"shortName": "Brewery", "icon": {"prefix": "https://ss3.4sqi.net/img/categories_v2/food/brewery_", "suffix": ".png"}, "primary": true, "name": "Brewery", "id": "50327c8591d4c4b30a586d5d", "pluralName": "Breweries"}], "location": {"cc": "US", "city": "Eugene", "postalCode": "97401", "labeledLatLngs": [{"lng": -123.09238300000001, "label": "display", "lat": 44.046377}], "lat": 44.046377, "address": "1203 Willamette St", "distance": 351, "lng": -123.09238300000001, "country": "United States", "state": "OR", "formattedAddress": ["1203 Willamette St", "Eugene, OR 97401", "United States"]}, "id": "5acd5160f96b2c02c137e313"}, {"hasPerk": false, "referralId": "v-1576201589", "name": "WildCraft Cider Works", "categories": [{"shortName": "Brewery", "icon": {"prefix": "https://ss3.4sqi.net/img/categories_v2/food/brewery_", "suffix": ".png"}, "primary": true, "name": "Brewery", "id": "50327c8591d4c4b30a586d5d", "pluralName": "Breweries"}], "location": {"cc": "US", "city": "Eugene", "postalCode": "97401", "labeledLatLngs": [{"lng": -123.0974179291232, "label": "display", "lat": 44.05568681400019}], "lat": 44.05568681400019, "address": "390 Lincoln St", "distance": 1299, "lng": -123.0974179291232, "country": "United States", "state": "OR", "formattedAddress": ["390 Lincoln St", "Eugene, OR 97401", "United States"]}, "id": "5466fe3d498e524c164fd42e"}, {"hasPerk": false, "delivery": {"provider": {"name": "grubhub", "icon": {"sizes": [40, 50], "name": "/delivery_provider_grubhub_20180129.png", "prefix": "https://fastly.4sqi.net/img/general/cap/"}}, "id": "990172", "url": "https://www.grubhub.com/restaurant/falling-sky-pizzeria-1395-university-st-eugene/990172?affiliate=1131&utm_source=foursquare-affiliate-network&utm_medium=affiliate&utm_campaign=1131&utm_content=990172"}, "referralId": "v-1576201589", "name": "Falling Sky Pizzeria & Public House", "categories": [{"shortName": "Pizza", "icon": {"prefix": "https://ss3.4sqi.net/img/categories_v2/food/pizza_", "suffix": ".png"}, "primary": true, "name": "Pizza Place", "id": "4bf58dd8d48988d1ca941735", "pluralName": "Pizza Places"}], "location": {"cc": "US", "postalCode": "97403", "neighborhood": "South Eugene", "labeledLatLngs": [{"lng": -123.074135, "label": "display", "lat": 44.044434}], "address": "1395 University St Unit 46", "distance": 1126, "city": "Eugene", "state": "OR", "formattedAddress": ["1395 University St Unit 46", "Eugene, OR 97403", "United States"], "lng": -123.074135, "country": "United States", "lat": 44.044434}, "id": "5766ec3c498e4316ba9414c2"}, {"hasPerk": false, "referralId": "v-1576201589", "name": "Bar Purlieu", "categories": [{"shortName": "French", "icon": {"prefix": "https://ss3.4sqi.net/img/categories_v2/food/french_", "suffix": ".png"}, "primary": true, "name": "French Restaurant", "id": "4bf58dd8d48988d10c941735", "pluralName": "French Restaurants"}], "location": {"cc": "US", "city": "Eugene", "postalCode": "97401", "labeledLatLngs": [{"lng": -123.093001, "label": "display", "lat": 44.04292}], "lat": 44.04292, "address": "1530 Willamette St", "distance": 539, "lng": -123.093001, "country": "United States", "state": "OR", "formattedAddress": ["1530 Willamette St", "Eugene, OR 97401", "United States"]}, "id": "5c283acb1ffed7002ce9062f"}, {"hasPerk": false, "referralId": "v-1576201589", "name": "HiFi Music Hall", "categories": [{"shortName": "Music Venue", "icon": {"prefix": "https://ss3.4sqi.net/img/categories_v2/arts_entertainment/musicvenue_", "suffix": ".png"}, "primary": true, "name": "Music Venue", "id": "4bf58dd8d48988d1e5931735", "pluralName": "Music Venues"}], "location": {"cc": "US", "postalCode": "97401", "labeledLatLngs": [{"lng": -123.09245548050224, "label": "display", "lat": 44.05190050218862}], "crossStreet": "at Willamette St", "distance": 730, "address": "44 E 7th Ave", "city": "Eugene", "state": "OR", "formattedAddress": ["44 E 7th Ave (at Willamette St)", "Eugene, OR 97401", "United States"], "lng": -123.09245548050224, "country": "United States", "lat": 44.05190050218862}, "id": "553ac46e498edaf4b05b7b2e"}, {"hasPerk": false, "referralId": "v-1576201589", "name": "Sweet Cheeks Tasting Room", "categories": [{"shortName": "Wine Bar", "icon": {"prefix": "https://ss3.4sqi.net/img/categories_v2/food/winery_", "suffix": ".png"}, "primary": true, "name": "Wine Bar", "id": "4bf58dd8d48988d123941735", "pluralName": "Wine Bars"}], "location": {"cc": "US", "city": "Eugene", "postalCode": "97401", "labeledLatLngs": [{"lng": -123.088934, "label": "display", "lat": 44.05391}], "lat": 44.05391, "state": "OR", "distance": 864, "lng": -123.088934, "country": "United States", "formattedAddress": ["Eugene, OR 97401", "United States"]}, "id": "596820058b98fd6fb9b896fe"}, {"hasPerk": false, "referralId": "v-1576201589", "name": "Territorial Vineyards & Wine Company", "categories": [{"shortName": "Wine Bar", "icon": {"prefix": "https://ss3.4sqi.net/img/categories_v2/food/winery_", "suffix": ".png"}, "primary": true, "name": "Wine Bar", "id": "4bf58dd8d48988d123941735", "pluralName": "Wine Bars"}], "location": {"cc": "US", "postalCode": "97402", "labeledLatLngs": [{"lng": -123.10659152382668, "label": "display", "lat": 44.056595753931525}], "crossStreet": "at Adams St", "distance": 1886, "address": "907 W 3rd Ave", "city": "Eugene", "state": "OR", "formattedAddress": ["907 W 3rd Ave (at Adams St)", "Eugene, OR 97402", "United States"], "lng": -123.10659152382668, "country": "United States", "lat": 44.056595753931525}, "id": "4bab0c3df964a5200c933ae3"}, {"hasPerk": false, "referralId": "v-1576201589", "name": "Manifest Beer Company", "categories": [{"shortName": "Brewery", "icon": {"prefix": "https://ss3.4sqi.net/img/categories_v2/food/brewery_", "suffix": ".png"}, "primary": true, "name": "Brewery", "id": "50327c8591d4c4b30a586d5d", "pluralName": "Breweries"}], "location": {"cc": "US", "city": "Eugene", "postalCode": "97401", "labeledLatLngs": [{"lng": -123.09284538030623, "label": "display", "lat": 44.05158576696177}], "lat": 44.05158576696177, "address": "740 Willamette St", "distance": 716, "lng": -123.09284538030623, "country": "United States", "state": "OR", "formattedAddress": ["740 Willamette St", "Eugene, OR 97401", "United States"]}, "id": "5acb5ffa4186866c64894033"}, {"hasPerk": false, "delivery": {"provider": {"name": "grubhub", "icon": {"sizes": [40, 50], "name": "/delivery_provider_grubhub_20180129.png", "prefix": "https://fastly.4sqi.net/img/general/cap/"}}, "id": "1508507", "url": "https://www.grubhub.com/restaurant/the-blackboard-296-east-5th-avenue-eugene/1508507?affiliate=1131&utm_source=foursquare-affiliate-network&utm_medium=affiliate&utm_campaign=1131&utm_content=1508507"}, "referralId": "v-1576201589", "name": "Blackboard", "categories": [{"shortName": "Wine Bar", "icon": {"prefix": "https://ss3.4sqi.net/img/categories_v2/food/winery_", "suffix": ".png"}, "primary": true, "name": "Wine Bar", "id": "4bf58dd8d48988d123941735", "pluralName": "Wine Bars"}], "location": {"cc": "US", "city": "Eugene", "postalCode": "97401", "labeledLatLngs": [{"lng": -123.08822, "label": "display", "lat": 44.054405}], "lat": 44.054405, "state": "OR", "distance": 916, "lng": -123.08822, "country": "United States", "formattedAddress": ["Eugene, OR 97401", "United States"]}, "id": "5998c0e4603d2a67152178b5"}, {"hasPerk": false, "referralId": "v-1576201589", "name": "Manifest Brew Co", "categories": [{"shortName": "Brewery", "icon": {"prefix": "https://ss3.4sqi.net/img/categories_v2/food/brewery_", "suffix": ".png"}, "primary": true, "name": "Brewery", "id": "50327c8591d4c4b30a586d5d", "pluralName": "Breweries"}], "location": {"cc": "US", "city": "Eugene", "postalCode": "97401", "labeledLatLngs": [{"lng": -123.093158, "label": "display", "lat": 44.051555}], "lat": 44.051555, "address": "740 Willamette St", "distance": 727, "lng": -123.093158, "country": "United States", "state": "OR", "formattedAddress": ["740 Willamette St", "Eugene, OR 97401", "United States"]}, "id": "5ac92b9ed552c7757d343fdb"}, {"hasPerk": false, "referralId": "v-1576201589", "name": "Trev\u2019s Sports Bar & Grill", "categories": [{"shortName": "Sports Bar", "icon": {"prefix": "https://ss3.4sqi.net/img/categories_v2/nightlife/sportsbar_", "suffix": ".png"}, "primary": true, "name": "Sports Bar", "id": "4bf58dd8d48988d11d941735", "pluralName": "Sports Bars"}], "location": {"cc": "US", "city": "Eugene", "postalCode": "97403", "labeledLatLngs": [{"lng": -123.068449, "label": "display", "lat": 44.046633}], "lat": 44.046633, "address": "1675 Franklin Blvd", "distance": 1565, "lng": -123.068449, "country": "United States", "state": "OR", "formattedAddress": ["1675 Franklin Blvd", "Eugene, OR 97403", "United States"]}, "id": "5b8b4d5b9f8a9f0039df88db"}, {"hasPerk": false, "referralId": "v-1576201589", "name": "Wileys Side Pocket Bar", "categories": [{"shortName": "Dive Bar", "icon": {"prefix": "https://ss3.4sqi.net/img/categories_v2/nightlife/divebar_", "suffix": ".png"}, "primary": true, "name": "Dive Bar", "id": "4bf58dd8d48988d118941735", "pluralName": "Dive Bars"}], "location": {"cc": "US", "postalCode": "97402", "labeledLatLngs": [{"lng": -123.10574199999999, "label": "display", "lat": 44.053045000000004}], "crossStreet": "Blair St", "distance": 1612, "address": "846 W 6th Ave", "city": "Eugene", "state": "OR", "formattedAddress": ["846 W 6th Ave (Blair St)", "Eugene, OR 97402", "United States"], "lng": -123.10574199999999, "country": "United States", "lat": 44.053045000000004}, "id": "4ee9749102d5d0dbe49de62c"}, {"hasPerk": false, "referralId": "v-1576201589", "name": "Mulligans Pub", "categories": [{"shortName": "Bar", "icon": {"prefix": "https://ss3.4sqi.net/img/categories_v2/nightlife/pub_", "suffix": ".png"}, "primary": true, "name": "Bar", "id": "4bf58dd8d48988d116941735", "pluralName": "Bars"}], "location": {"cc": "US", "city": "Eugene", "postalCode": "97405", "labeledLatLngs": [{"lng": -123.09036476201197, "label": "display", "lat": 44.02705892531003}], "lat": 44.02705892531003, "address": "2841 Willamette St", "distance": 2136, "lng": -123.09036476201197, "country": "United States", "state": "OR", "formattedAddress": ["2841 Willamette St", "Eugene, OR 97405", "United States"]}, "id": "4b654decf964a5208cec2ae3"}, {"hasPerk": false, "referralId": "v-1576201589", "name": "Kapu Hut At The North Bank", "categories": [{"shortName": "Tiki Bar", "icon": {"prefix": "https://ss3.4sqi.net/img/categories_v2/nightlife/cocktails_", "suffix": ".png"}, "primary": true, "name": "Tiki Bar", "id": "56aa371be4b08b9a8d57354d", "pluralName": "Tiki Bars"}], "location": {"cc": "US", "city": "Eugene", "postalCode": "97401", "labeledLatLngs": [{"lng": -123.084919, "label": "display", "lat": 44.059591}], "lat": 44.059591, "address": "22 Club Rd", "distance": 1513, "lng": -123.084919, "country": "United States", "state": "OR", "formattedAddress": ["22 Club Rd", "Eugene, OR 97401", "United States"]}, "id": "5d363b049bc0e700086eaa7b"}, {"hasPerk": false, "referralId": "v-1576201589", "name": "Spectrum", "categories": [{"shortName": "Gay Bar", "icon": {"prefix": "https://ss3.4sqi.net/img/categories_v2/nightlife/gaybar_", "suffix": ".png"}, "primary": true, "name": "Gay Bar", "id": "4bf58dd8d48988d1d8941735", "pluralName": "Gay Bars"}], "location": {"cc": "US", "city": "Eugene", "postalCode": "97401", "labeledLatLngs": [{"lng": -123.094826, "label": "display", "lat": 44.04991}], "lat": 44.04991, "address": "150 W Broadway", "distance": 686, "lng": -123.094826, "country": "United States", "state": "OR", "formattedAddress": ["150 W Broadway", "Eugene, OR 97401", "United States"]}, "id": "5cbbba8ca30619002c9bbe44"}, {"hasPerk": false, "delivery": {"provider": {"name": "grubhub", "icon": {"sizes": [40, 50], "name": "/delivery_provider_grubhub_20180129.png", "prefix": "https://fastly.4sqi.net/img/general/cap/"}}, "id": "992873", "url": "https://www.grubhub.com/restaurant/old-nicks-211-washington-st-eugene/992873?affiliate=1131&utm_source=foursquare-affiliate-network&utm_medium=affiliate&utm_campaign=1131&utm_content=992873"}, "referralId": "v-1576201589", "name": "Old Nicks", "categories": [{"shortName": "Bar", "icon": {"prefix": "https://ss3.4sqi.net/img/categories_v2/nightlife/pub_", "suffix": ".png"}, "primary": true, "name": "Bar", "id": "4bf58dd8d48988d116941735", "pluralName": "Bars"}], "location": {"cc": "US", "postalCode": "97402", "labeledLatLngs": [{"lng": -123.10008700000002, "label": "display", "lat": 44.05748}], "crossStreet": "at E 2nd Ave", "distance": 1587, "address": "211 Washington St", "city": "Eugene", "state": "OR", "formattedAddress": ["211 Washington St (at E 2nd Ave)", "Eugene, OR 97402", "United States"], "lng": -123.10008700000002, "country": "United States", "lat": 44.05748}, "id": "5531f383498e051a1d24f3c4"}, {"hasPerk": false, "delivery": {"provider": {"name": "grubhub", "icon": {"sizes": [40, 50], "name": "/delivery_provider_grubhub_20180129.png", "prefix": "https://fastly.4sqi.net/img/general/cap/"}}, "id": "1335503", "url": "https://www.grubhub.com/restaurant/ambrosia-restaurant--bar-174-east-broadway-eugene/1335503?affiliate=1131&utm_source=foursquare-affiliate-network&utm_medium=affiliate&utm_campaign=1131&utm_content=1335503"}, "referralId": "v-1576201589", "name": "Ambrosia", "categories": [{"shortName": "Italian", "icon": {"prefix": "https://ss3.4sqi.net/img/categories_v2/food/italian_", "suffix": ".png"}, "primary": true, "name": "Italian Restaurant", "id": "4bf58dd8d48988d110941735", "pluralName": "Italian Restaurants"}], "location": {"cc": "US", "postalCode": "97401", "labeledLatLngs": [{"lng": -123.09004747206274, "label": "display", "lat": 44.04978542793176}], "crossStreet": "at Pearl St", "distance": 434, "address": "174 E Broadway", "city": "Eugene", "state": "OR", "formattedAddress": ["174 E Broadway (at Pearl St)", "Eugene, OR 97401", "United States"], "lng": -123.09004747206274, "country": "United States", "lat": 44.04978542793176}, "id": "4b47d5aff964a520db4026e3"}, {"hasPerk": false, "delivery": {"provider": {"name": "grubhub", "icon": {"sizes": [40, 50], "name": "/delivery_provider_grubhub_20180129.png", "prefix": "https://fastly.4sqi.net/img/general/cap/"}}, "id": "990404", "url": "https://www.grubhub.com/restaurant/falling-sky-brewing-house-1334-oak-aly-eugene/990404?affiliate=1131&utm_source=foursquare-affiliate-network&utm_medium=affiliate&utm_campaign=1131&utm_content=990404"}, "referralId": "v-1576201589", "name": "Falling Sky Brewing", "categories": [{"shortName": "Brewery", "icon": {"prefix": "https://ss3.4sqi.net/img/categories_v2/food/brewery_", "suffix": ".png"}, "primary": true, "name": "Brewery", "id": "50327c8591d4c4b30a586d5d", "pluralName": "Breweries"}], "location": {"cc": "US", "postalCode": "97401", "labeledLatLngs": [{"lng": -123.09221908640333, "label": "display", "lat": 44.045175604882516}], "crossStreet": "btwn Willamette & Oak St", "distance": 355, "address": "1334 Oak Alley", "city": "Eugene", "state": "OR", "formattedAddress": ["1334 Oak Alley (btwn Willamette & Oak St)", "Eugene, OR 97401", "United States"], "lng": -123.09221908640333, "country": "United States", "lat": 44.045175604882516}, "id": "4ea5ed75754afc1baa1125e6"}, {"venuePage": {"id": "99619693"}, "hasPerk": false, "referralId": "v-1576201589", "categories": [{"shortName": "Brewery", "icon": {"prefix": "https://ss3.4sqi.net/img/categories_v2/food/brewery_", "suffix": ".png"}, "primary": true, "name": "Brewery", "id": "50327c8591d4c4b30a586d5d", "pluralName": "Breweries"}], "name": "The Elk Horn Brewery & Ciderhouse", "location": {"cc": "US", "postalCode": "97401", "labeledLatLngs": [{"lng": -123.08242799438956, "label": "display", "lat": 44.04968441051894}], "crossStreet": "at Hilyard St", "distance": 592, "address": "686 E Broadway", "city": "Eugene", "state": "OR", "formattedAddress": ["686 E Broadway (at Hilyard St)", "Eugene, OR 97401", "United States"], "lng": -123.08242799438956, "country": "United States", "lat": 44.04968441051894}, "id": "53441169498eabb1b149f339"}, {"venuePage": {"id": "76290831"}, "hasPerk": false, "referralId": "v-1576201589", "categories": [{"shortName": "Wine Bar", "icon": {"prefix": "https://ss3.4sqi.net/img/categories_v2/food/winery_", "suffix": ".png"}, "primary": true, "name": "Wine Bar", "id": "4bf58dd8d48988d123941735", "pluralName": "Wine Bars"}], "name": "Oregon Wine LAB", "location": {"cc": "US", "postalCode": "97401", "labeledLatLngs": [{"lng": -123.09757690149426, "label": "display", "lat": 44.05459363569431}], "crossStreet": "at W 5th Ave", "distance": 1210, "address": "488 Lincoln St", "city": "Eugene", "state": "OR", "formattedAddress": ["488 Lincoln St (at W 5th Ave)", "Eugene, OR 97401", "United States"], "lng": -123.09757690149426, "country": "United States", "lat": 44.05459363569431}, "id": "5283d27c11d25c1f6d9fe581"}, {"venuePage": {"id": "67696849"}, "hasPerk": false, "delivery": {"provider": {"name": "grubhub", "icon": {"sizes": [40, 50], "name": "/delivery_provider_grubhub_20180129.png", "prefix": "https://fastly.4sqi.net/img/general/cap/"}}, "id": "990522", "url": "https://www.grubhub.com/restaurant/hop-valley---eugene-990-w-1st-ave-eugene/990522?affiliate=1131&utm_source=foursquare-affiliate-network&utm_medium=affiliate&utm_campaign=1131&utm_content=990522"}, "referralId": "v-1576201589", "name": "Hop Valley Brewing Co.", "categories": [{"shortName": "Brewery", "icon": {"prefix": "https://ss3.4sqi.net/img/categories_v2/food/brewery_", "suffix": ".png"}, "primary": true, "name": "Brewery", "id": "50327c8591d4c4b30a586d5d", "pluralName": "Breweries"}], "location": {"cc": "US", "city": "Eugene", "postalCode": "97402", "labeledLatLngs": [{"lng": -123.10766019147533, "label": "display", "lat": 44.058474740002815}], "lat": 44.058474740002815, "address": "990 W 1st Ave", "distance": 2085, "lng": -123.10766019147533, "country": "United States", "state": "OR", "formattedAddress": ["990 W 1st Ave", "Eugene, OR 97402", "United States"]}, "id": "509430aa7ab4da9e7e862332"}, {"venuePage": {"id": "105174714"}, "hasPerk": false, "referralId": "v-1576201589", "categories": [{"shortName": "Gastropub", "icon": {"prefix": "https://ss3.4sqi.net/img/categories_v2/food/gastropub_", "suffix": ".png"}, "primary": true, "name": "Gastropub", "id": "4bf58dd8d48988d155941735", "pluralName": "Gastropubs"}], "name": "Oregon Electric Station", "location": {"cc": "US", "postalCode": "97401", "labeledLatLngs": [{"lng": -123.09223459147304, "label": "display", "lat": 44.05447787772746}], "crossStreet": "at Willamette St", "distance": 984, "address": "27 East 5th Ave.", "city": "Eugene", "state": "OR", "formattedAddress": ["27 East 5th Ave. (at Willamette St)", "Eugene, OR 97401", "United States"], "lng": -123.09223459147304, "country": "United States", "lat": 44.05447787772746}, "id": "53e17180498e22f2aef463ad"}, {"hasPerk": false, "referralId": "v-1576201589", "name": "Izakaya Meiji Company", "categories": [{"shortName": "Japanese", "icon": {"prefix": "https://ss3.4sqi.net/img/categories_v2/food/japanese_", "suffix": ".png"}, "primary": true, "name": "Japanese Restaurant", "id": "4bf58dd8d48988d111941735", "pluralName": "Japanese Restaurants"}], "location": {"cc": "US", "postalCode": "97402", "labeledLatLngs": [{"lng": -123.10942011976265, "label": "display", "lat": 44.05611994679806}], "crossStreet": "at W 3rd Pl", "distance": 2040, "address": "345 Van Buren St", "city": "Eugene", "state": "OR", "formattedAddress": ["345 Van Buren St (at W 3rd Pl)", "Eugene, OR 97402", "United States"], "lng": -123.10942011976265, "country": "United States", "lat": 44.05611994679806}, "id": "4c5e09297f661b8d133f4d1c"}, {"hasPerk": false, "referralId": "v-1576201589", "name": "The Starlight Lounge", "categories": [{"shortName": "Bar", "icon": {"prefix": "https://ss3.4sqi.net/img/categories_v2/nightlife/pub_", "suffix": ".png"}, "primary": true, "name": "Bar", "id": "4bf58dd8d48988d116941735", "pluralName": "Bars"}], "location": {"cc": "US", "postalCode": "97401", "labeledLatLngs": [{"lng": -123.09453094474156, "label": "display", "lat": 44.0506356464749}], "crossStreet": "at E 8th St", "distance": 720, "address": "830 Olive St", "city": "Eugene", "state": "OR", "formattedAddress": ["830 Olive St (at E 8th St)", "Eugene, OR 97401", "United States"], "lng": -123.09453094474156, "country": "United States", "lat": 44.0506356464749}, "id": "4b09b9b0f964a520711c23e3"}, {"hasPerk": false, "referralId": "v-1576201589", "name": "ColdFire Brewing", "categories": [{"shortName": "Brewery", "icon": {"prefix": "https://ss3.4sqi.net/img/categories_v2/food/brewery_", "suffix": ".png"}, "primary": true, "name": "Brewery", "id": "50327c8591d4c4b30a586d5d", "pluralName": "Breweries"}], "location": {"cc": "US", "postalCode": "97401", "labeledLatLngs": [{"lng": -123.08626676864058, "label": "display", "lat": 44.05695532461806}], "crossStreet": "at 3rd St", "distance": 1208, "address": "263 Mill St", "city": "Eugene", "state": "OR", "formattedAddress": ["263 Mill St (at 3rd St)", "Eugene, OR 97401", "United States"], "lng": -123.08626676864058, "country": "United States", "lat": 44.05695532461806}, "id": "56a42567498e6a104f884635"}, {"hasPerk": false, "referralId": "v-1576201589", "name": "The Barn Light - West", "categories": [{"shortName": "Bar", "icon": {"prefix": "https://ss3.4sqi.net/img/categories_v2/nightlife/pub_", "suffix": ".png"}, "primary": true, "name": "Bar", "id": "4bf58dd8d48988d116941735", "pluralName": "Bars"}], "location": {"cc": "US", "postalCode": "97401", "labeledLatLngs": [{"lng": -123.09291209555661, "label": "display", "lat": 44.04976907901481}], "crossStreet": "at W Broadway", "distance": 560, "address": "924 Willamette St", "city": "Eugene", "state": "OR", "formattedAddress": ["924 Willamette St (at W Broadway)", "Eugene, OR 97401", "United States"], "lng": -123.09291209555661, "country": "United States", "lat": 44.04976907901481}, "id": "508454f98aca3f16d682c3fa"}, {"hasPerk": false, "referralId": "v-1576201589", "name": "Webfoot Bar & Grill", "categories": [{"shortName": "Sports Bar", "icon": {"prefix": "https://ss3.4sqi.net/img/categories_v2/nightlife/sportsbar_", "suffix": ".png"}, "primary": true, "name": "Sports Bar", "id": "4bf58dd8d48988d11d941735", "pluralName": "Sports Bars"}], "location": {"cc": "US", "postalCode": "97401", "labeledLatLngs": [{"lng": -123.07959857451354, "label": "display", "lat": 44.045752872139545}], "crossStreet": "btwn Alder & Kincaid St.", "distance": 673, "address": "839 E 13th Ave", "city": "Eugene", "state": "OR", "formattedAddress": ["839 E 13th Ave (btwn Alder & Kincaid St.)", "Eugene, OR 97401", "United States"], "lng": -123.07959857451354, "country": "United States", "lat": 44.045752872139545}, "id": "4ec829a69adf9c7bf3e21902"}, {"hasPerk": false, "delivery": {"provider": {"name": "grubhub", "icon": {"sizes": [40, 50], "name": "/delivery_provider_grubhub_20180129.png", "prefix": "https://fastly.4sqi.net/img/general/cap/"}}, "id": "1334468", "url": "https://www.grubhub.com/restaurant/rye-444-east-3rd-avenue-eugene/1334468?affiliate=1131&utm_source=foursquare-affiliate-network&utm_medium=affiliate&utm_campaign=1131&utm_content=1334468"}, "referralId": "v-1576201589", "name": "Rye", "categories": [{"shortName": "Cocktail", "icon": {"prefix": "https://ss3.4sqi.net/img/categories_v2/nightlife/cocktails_", "suffix": ".png"}, "primary": true, "name": "Cocktail Bar", "id": "4bf58dd8d48988d11e941735", "pluralName": "Cocktail Bars"}], "location": {"cc": "US", "postalCode": "97401", "labeledLatLngs": [{"lng": -123.08595911817027, "label": "display", "lat": 44.05630465221864}], "crossStreet": "at Coburg Rd.", "distance": 1139, "address": "444 E 3rd Ave", "city": "Eugene", "state": "OR", "formattedAddress": ["444 E 3rd Ave (at Coburg Rd.)", "Eugene, OR 97401", "United States"], "lng": -123.08595911817027, "country": "United States", "lat": 44.05630465221864}, "id": "4f4bc1f0e4b093da151d7522"}, {"venuePage": {"id": "84312817"}, "hasPerk": false, "referralId": "v-1576201589", "categories": [{"shortName": "Sports Bar", "icon": {"prefix": "https://ss3.4sqi.net/img/categories_v2/nightlife/sportsbar_", "suffix": ".png"}, "primary": true, "name": "Sports Bar", "id": "4bf58dd8d48988d11d941735", "pluralName": "Sports Bars"}], "name": "Sixth Street Grill", "location": {"cc": "US", "postalCode": "97401", "labeledLatLngs": [{"lng": -123.09369314657856, "label": "display", "lat": 44.05335722448919}], "crossStreet": "at Olive St", "distance": 920, "address": "55 W 6th Ave", "city": "Eugene", "state": "OR", "formattedAddress": ["55 W 6th Ave (at Olive St)", "Eugene, OR 97401", "United States"], "lng": -123.09369314657856, "country": "United States", "lat": 44.05335722448919}, "id": "4b09bad4f964a5208b1c23e3"}, {"venuePage": {"id": "86552590"}, "hasPerk": false, "referralId": "v-1576201589", "categories": [{"shortName": "Beer Store", "icon": {"prefix": "https://ss3.4sqi.net/img/categories_v2/nightlife/beergarden_", "suffix": ".png"}, "primary": true, "name": "Beer Store", "id": "5370f356bcbc57f1066c94c2", "pluralName": "Beer Stores"}], "name": "The Tap & Growler", "location": {"cc": "US", "postalCode": "97401", "labeledLatLngs": [{"lng": -123.08950134960449, "label": "display", "lat": 44.054587615306154}], "crossStreet": "at Pearl St", "distance": 944, "address": "207 E 5th Ave #115", "city": "Eugene", "state": "OR", "formattedAddress": ["207 E 5th Ave #115 (at Pearl St)", "Eugene, OR 97401", "United States"], "lng": -123.08950134960449, "country": "United States", "lat": 44.054587615306154}, "id": "523e4e7511d2ee1515d2c251"}, {"hasPerk": false, "referralId": "v-1576201589", "name": "Beergarden", "categories": [{"shortName": "Beer Garden", "icon": {"prefix": "https://ss3.4sqi.net/img/categories_v2/nightlife/beergarden_", "suffix": ".png"}, "primary": true, "name": "Beer Garden", "id": "4bf58dd8d48988d117941735", "pluralName": "Beer Gardens"}], "location": {"cc": "US", "postalCode": "97402", "labeledLatLngs": [{"lng": -123.1044047054481, "label": "display", "lat": 44.05361088864475}], "crossStreet": "Jefferson", "distance": 1551, "address": "777 W 6th Ave", "city": "Eugene", "state": "OR", "formattedAddress": ["777 W 6th Ave (Jefferson)", "Eugene, OR 97402", "United States"], "lng": -123.1044047054481, "country": "United States", "lat": 44.05361088864475}, "id": "55735df2498e4ce268246184"}, {"hasPerk": false, "referralId": "v-1576201589", "name": "Steelhead Brewing Company", "categories": [{"shortName": "Brewery", "icon": {"prefix": "https://ss3.4sqi.net/img/categories_v2/food/brewery_", "suffix": ".png"}, "primary": true, "name": "Brewery", "id": "50327c8591d4c4b30a586d5d", "pluralName": "Breweries"}], "location": {"cc": "US", "postalCode": "97401", "labeledLatLngs": [{"lng": -123.08986495988853, "label": "display", "lat": 44.05437817759467}], "crossStreet": "at Pearl St", "distance": 925, "address": "199 E 5th Ave", "city": "Eugene", "state": "OR", "formattedAddress": ["199 E 5th Ave (at Pearl St)", "Eugene, OR 97401", "United States"], "lng": -123.08986495988853, "country": "United States", "lat": 44.05437817759467}, "id": "4ac797e0f964a5204db820e3"}, {"hasPerk": false, "referralId": "v-1576201589", "name": "Oakshire Brewing Public House", "categories": [{"shortName": "Brewery", "icon": {"prefix": "https://ss3.4sqi.net/img/categories_v2/food/brewery_", "suffix": ".png"}, "primary": true, "name": "Brewery", "id": "50327c8591d4c4b30a586d5d", "pluralName": "Breweries"}], "location": {"cc": "US", "postalCode": "97402", "labeledLatLngs": [{"lng": -123.10330168510357, "label": "display", "lat": 44.0574226615112}], "crossStreet": "at W 2nd Ave", "distance": 1751, "address": "207 Madison St", "city": "Eugene", "state": "OR", "formattedAddress": ["207 Madison St (at W 2nd Ave)", "Eugene, OR 97402", "United States"], "lng": -123.10330168510357, "country": "United States", "lat": 44.0574226615112}, "id": "515dcb0439501edb869c3a79"}, {"hasPerk": false, "referralId": "v-1576201589", "name": "Broadway Metro", "categories": [{"shortName": "Indie Movies", "icon": {"prefix": "https://ss3.4sqi.net/img/categories_v2/arts_entertainment/movietheater_", "suffix": ".png"}, "primary": true, "name": "Indie Movie Theater", "id": "4bf58dd8d48988d17e941735", "pluralName": "Indie Movie Theaters"}], "location": {"cc": "US", "postalCode": "97401", "labeledLatLngs": [{"lng": -123.0930705295761, "label": "display", "lat": 44.050030762991355}], "crossStreet": "at Willamette St", "distance": 590, "address": "43 W Broadway", "city": "Eugene", "state": "OR", "formattedAddress": ["43 W Broadway (at Willamette St)", "Eugene, OR 97401", "United States"], "lng": -123.0930705295761, "country": "United States", "lat": 44.050030762991355}, "id": "5192c9ddabd800893360120e"}, {"venuePage": {"id": "71118660"}, "hasPerk": false, "delivery": {"provider": {"name": "grubhub", "icon": {"sizes": [40, 50], "name": "/delivery_provider_grubhub_20180129.png", "prefix": "https://fastly.4sqi.net/img/general/cap/"}}, "id": "990568", "url": "https://www.grubhub.com/restaurant/falling-sky-delicatessen-790-blair-blvd-eugene/990568?affiliate=1131&utm_source=foursquare-affiliate-network&utm_medium=affiliate&utm_campaign=1131&utm_content=990568"}, "referralId": "v-1576201589", "name": "Falling Sky Delicatessen Pour House", "categories": [{"shortName": "Brewery", "icon": {"prefix": "https://ss3.4sqi.net/img/categories_v2/food/brewery_", "suffix": ".png"}, "primary": true, "name": "Brewery", "id": "50327c8591d4c4b30a586d5d", "pluralName": "Breweries"}], "location": {"cc": "US", "postalCode": "97402", "labeledLatLngs": [{"lng": -123.10539163427654, "label": "display", "lat": 44.05104006708514}], "crossStreet": "at W 8th Ave", "distance": 1493, "address": "790 Blair Blvd", "city": "Eugene", "state": "OR", "formattedAddress": ["790 Blair Blvd (at W 8th Ave)", "Eugene, OR 97402", "United States"], "lng": -123.10539163427654, "country": "United States", "lat": 44.05104006708514}, "id": "512fbc8bd63e265e9211b3c2"}, {"hasPerk": false, "referralId": "v-1576201589", "name": "First National Taphouse", "categories": [{"shortName": "Pub", "icon": {"prefix": "https://ss3.4sqi.net/img/categories_v2/nightlife/pub_", "suffix": ".png"}, "primary": true, "name": "Pub", "id": "4bf58dd8d48988d11b941735", "pluralName": "Pubs"}], "location": {"cc": "US", "postalCode": "97401", "labeledLatLngs": [{"lng": -123.09332601732815, "label": "display", "lat": 44.04993043696662}], "crossStreet": "btwn Willamette St & Olive St", "distance": 597, "address": "51 W Broadway", "city": "Eugene", "state": "OR", "formattedAddress": ["51 W Broadway (btwn Willamette St & Olive St)", "Eugene, OR 97401", "United States"], "lng": -123.09332601732815, "country": "United States", "lat": 44.04993043696662}, "id": "512fba73d63e265e920e3371"}, {"venuePage": {"id": "57579173"}, "hasPerk": false, "referralId": "v-1576201589", "categories": [{"shortName": "Burgers", "icon": {"prefix": "https://ss3.4sqi.net/img/categories_v2/food/burger_", "suffix": ".png"}, "primary": true, "name": "Burger Joint", "id": "4bf58dd8d48988d16c941735", "pluralName": "Burger Joints"}], "name": "Cornucopia Bar & Burgers", "location": {"cc": "US", "postalCode": "97401", "labeledLatLngs": [{"lng": -123.08950598993805, "label": "display", "lat": 44.05468311943812}], "crossStreet": "at Pearl St.", "distance": 954, "address": "207 E 5th Ave", "city": "Eugene", "state": "OR", "formattedAddress": ["207 E 5th Ave (at Pearl St.)", "Eugene, OR 97401", "United States"], "lng": -123.08950598993805, "country": "United States", "lat": 44.05468311943812}, "id": "4b12c500f964a520bd8d23e3"}, {"hasPerk": false, "delivery": {"provider": {"name": "grubhub", "icon": {"sizes": [40, 50], "name": "/delivery_provider_grubhub_20180129.png", "prefix": "https://fastly.4sqi.net/img/general/cap/"}}, "id": "1028827", "url": "https://www.grubhub.com/restaurant/wild-duck-cafe-1419-villard-st-eugene/1028827?affiliate=1131&utm_source=foursquare-affiliate-network&utm_medium=affiliate&utm_campaign=1131&utm_content=1028827"}, "referralId": "v-1576201589", "name": "Wild Duck Caf\u00e9", "categories": [{"shortName": "Pub", "icon": {"prefix": "https://ss3.4sqi.net/img/categories_v2/nightlife/pub_", "suffix": ".png"}, "primary": true, "name": "Pub", "id": "4bf58dd8d48988d11b941735", "pluralName": "Pubs"}], "location": {"cc": "US", "city": "Eugene", "postalCode": "97403", "labeledLatLngs": [{"lng": -123.06469976302158, "label": "display", "lat": 44.04421997122662}], "lat": 44.04421997122662, "address": "1419 Villard St", "distance": 1877, "lng": -123.06469976302158, "country": "United States", "state": "OR", "formattedAddress": ["1419 Villard St", "Eugene, OR 97403", "United States"]}, "id": "4ec9a597722e143798f1ed3b"}, {"hasPerk": false, "referralId": "v-1576201589", "name": "The Growler Guys", "categories": [{"shortName": "Beer Bar", "icon": {"prefix": "https://ss3.4sqi.net/img/categories_v2/nightlife/pub_", "suffix": ".png"}, "primary": true, "name": "Beer Bar", "id": "56aa371ce4b08b9a8d57356c", "pluralName": "Beer Bars"}], "location": {"cc": "US", "postalCode": "97401", "labeledLatLngs": [{"lng": -123.09998871862784, "label": "display", "lat": 44.05183025154752}], "crossStreet": "at Washington St", "distance": 1147, "address": "472 W 7th Ave", "city": "Eugene", "state": "OR", "formattedAddress": ["472 W 7th Ave (at Washington St)", "Eugene, OR 97401", "United States"], "lng": -123.09998871862784, "country": "United States", "lat": 44.05183025154752}, "id": "524f9d9011d2820650562f48"}, {"hasPerk": false, "delivery": {"provider": {"name": "grubhub", "icon": {"sizes": [40, 50], "name": "/delivery_provider_grubhub_20180129.png", "prefix": "https://fastly.4sqi.net/img/general/cap/"}}, "id": "984566", "url": "https://www.grubhub.com/restaurant/killer-burger---eugene-50-w-broadway-eugene/984566?affiliate=1131&utm_source=foursquare-affiliate-network&utm_medium=affiliate&utm_campaign=1131&utm_content=984566"}, "referralId": "v-1576201589", "name": "Killer Burger", "categories": [{"shortName": "Burgers", "icon": {"prefix": "https://ss3.4sqi.net/img/categories_v2/food/burger_", "suffix": ".png"}, "primary": true, "name": "Burger Joint", "id": "4bf58dd8d48988d16c941735", "pluralName": "Burger Joints"}], "location": {"cc": "US", "postalCode": "97401", "labeledLatLngs": [{"lng": -123.0931929326472, "label": "display", "lat": 44.04982338448284}], "crossStreet": "at Willamette St", "distance": 581, "address": "50 W Broadway", "city": "Eugene", "state": "OR", "formattedAddress": ["50 W Broadway (at Willamette St)", "Eugene, OR 97401", "United States"], "lng": -123.0931929326472, "country": "United States", "lat": 44.04982338448284}, "id": "53f7f545498e585472b69b46"}, {"hasPerk": false, "referralId": "v-1576201589", "name": "Capella Market", "categories": [{"shortName": "Gourmet", "icon": {"prefix": "https://ss3.4sqi.net/img/categories_v2/shops/food_gourmet_", "suffix": ".png"}, "primary": true, "name": "Gourmet Shop", "id": "4bf58dd8d48988d1f5941735", "pluralName": "Gourmet Shops"}], "location": {"cc": "US", "postalCode": "97405", "labeledLatLngs": [{"lng": -123.09038022825439, "label": "display", "lat": 44.03166170479206}], "crossStreet": "at E 25th Ave", "distance": 1626, "address": "2489 Willamette St", "city": "Eugene", "state": "OR", "formattedAddress": ["2489 Willamette St (at E 25th Ave)", "Eugene, OR 97405", "United States"], "lng": -123.09038022825439, "country": "United States", "lat": 44.03166170479206}, "id": "4b48b62ef964a520b55326e3"}, {"hasPerk": false, "referralId": "v-1576201589", "name": "Jackalope Lounge", "categories": [{"shortName": "Bar", "icon": {"prefix": "https://ss3.4sqi.net/img/categories_v2/nightlife/pub_", "suffix": ".png"}, "primary": true, "name": "Bar", "id": "4bf58dd8d48988d116941735", "pluralName": "Bars"}], "location": {"cc": "US", "postalCode": "97401", "labeledLatLngs": [{"lng": -123.09255449608612, "label": "display", "lat": 44.054896307501664}], "crossStreet": "at 5th Ave", "distance": 1037, "address": "453 Willamette St", "city": "Eugene", "state": "OR", "formattedAddress": ["453 Willamette St (at 5th Ave)", "Eugene, OR 97401", "United States"], "lng": -123.09255449608612, "country": "United States", "lat": 44.054896307501664}, "id": "4aee4721f964a52053d321e3"}, {"hasPerk": false, "referralId": "v-1576201589", "name": "Jameson's", "categories": [{"shortName": "Bar", "icon": {"prefix": "https://ss3.4sqi.net/img/categories_v2/nightlife/pub_", "suffix": ".png"}, "primary": true, "name": "Bar", "id": "4bf58dd8d48988d116941735", "pluralName": "Bars"}], "location": {"cc": "US", "postalCode": "97401", "labeledLatLngs": [{"lng": -123.09431150490569, "label": "display", "lat": 44.050041404034204}], "crossStreet": "at Olive St", "distance": 663, "address": "115 W Broadway", "city": "Eugene", "state": "OR", "formattedAddress": ["115 W Broadway (at Olive St)", "Eugene, OR 97401", "United States"], "lng": -123.09431150490569, "country": "United States", "lat": 44.050041404034204}, "id": "4b09b860f964a520571c23e3"}, {"hasPerk": false, "delivery": {"provider": {"name": "grubhub", "icon": {"sizes": [40, 50], "name": "/delivery_provider_grubhub_20180129.png", "prefix": "https://fastly.4sqi.net/img/general/cap/"}}, "id": "1513125", "url": "https://www.grubhub.com/restaurant/the-flying-squirrel-49-west-29th-avenue-eugene/1513125?affiliate=1131&utm_source=foursquare-affiliate-network&utm_medium=affiliate&utm_campaign=1131&utm_content=1513125"}, "referralId": "v-1576201589", "name": "The Flying Squirrel Tavern", "categories": [{"shortName": "Bar", "icon": {"prefix": "https://ss3.4sqi.net/img/categories_v2/nightlife/pub_", "suffix": ".png"}, "primary": true, "name": "Bar", "id": "4bf58dd8d48988d116941735", "pluralName": "Bars"}], "location": {"cc": "US", "postalCode": "97405", "labeledLatLngs": [{"lng": -123.09202005419921, "label": "display", "lat": 44.02636126188542}], "crossStreet": "at Willamette St.", "distance": 2228, "address": "49 W 29th Ave", "city": "Eugene", "state": "OR", "formattedAddress": ["49 W 29th Ave (at Willamette St.)", "Eugene, OR 97405", "United States"], "lng": -123.09202005419921, "country": "United States", "lat": 44.02636126188542}, "id": "4fa83faabb3da924fcd4b778"}, {"hasPerk": false, "referralId": "v-1576201589", "name": "Blairally Vintage Arcade", "categories": [{"shortName": "Arcade", "icon": {"prefix": "https://ss3.4sqi.net/img/categories_v2/arts_entertainment/arcade_", "suffix": ".png"}, "primary": true, "name": "Arcade", "id": "4bf58dd8d48988d1e1931735", "pluralName": "Arcades"}], "location": {"cc": "US", "postalCode": "97402", "labeledLatLngs": [{"lng": -123.11049644298377, "label": "display", "lat": 44.05721233419196}], "crossStreet": "at W 2nd Ave", "distance": 2179, "address": "245 Blair Blvd", "city": "Eugene", "state": "OR", "formattedAddress": ["245 Blair Blvd (at W 2nd Ave)", "Eugene, OR 97402", "United States"], "lng": -123.11049644298377, "country": "United States", "lat": 44.05721233419196}, "id": "4e04d3591fc7116f1e96f8dd"}]}